PhotoNum,Altitude,DateName,FlightNum,FlightNam,Folder1,Folder2,MrkFolder,ZSpeed,DroneRoll,SensTemp,RtkStdHgt,HeatIdx,RtkStdLat,REI,FocusDist,XSpeed,DronModel,folder_path,MrkPath,3DSpeed,LRFLong,GeoDstP,ShutPct,GimAngV,LSrcClass,Latitude,LRFY,Dist3DP,HeightPX,GPSLong,GimbRoll,RtkDifAge,FormatMod,FocalLeng,PQI,ExpMode,folder,BlurRisk,WhiteBlc,SensorFPS,RelativeY,LRFLati,SpdKmH,DirDispl,LinVelI,Ytype,LRFDist,TimePrv,GsdCmPx,DateTmFul,YawErr,EV,DPIWidth,LrfAbsAlt,RtkStab,DronePitc,WidthPX,ShutterSp,GpsLat,PredOver,ZoomRatio,RTKPrec,Lens,Firmware,ISOSpeed,GimbYaw,Model,AbsY,RtkStdLon,GpsStatus,OrtoPot,Segments,CaptureID,UTCTime,LightCons,FNumber,DPIHeight,ExpTime,LensPosit,ImgQualit,VertStb,IncAngle,SizeMB,GimOffset,Dewarp,ExpProg,StripID,AbrChgF,File,FileType,LensTemp,DateOnly,CapEff,IdealOvl,EstCover,MrkFile,ApertureV,MaxApertV,DroneID,DateTime,TrajSmt,LightSour,GimbPitch,GPSDatum,AvgVelB,RtkFlag,TimeOnly,YSpeed,DroneYaw,SpdVar,Longitude,CameraID,LRFStatus,Path,ShotCount
1,379.965,"20250819",,,DJI_202508191502_001_AreaTesteLines15ms_DewarpingDesabilitado,teste,G:\teste\DJI_202508191502_001_AreaTesteLines15ms_DewarpingDesabilitado,0.1,-1.3,44,0.00793,43.15,0.00307,130,,0,M4E,G:\teste\DJI_202508191502_001_AreaTesteLines15ms_DewarpingDesabilitado,G:\teste\DJI_202508191502_001_AreaTesteLines15ms_DewarpingDesabilitado\DJI_20250819150449_0002_D.MRK,0.1,-48.3591866,0,0.2797,0,Daylight,-10.21864529,-0.475,0,3956,-48.359186531,180,2,MPO_RGB,"12.29",70,0,DJI_202508191502_001_AreaTesteLines15ms_DewarpingDesabilitado,0.0103,4164,5819/100,167.548,-10.2186475,0.4,0,0.1,RtkAlt,168.055,0,1.9398,"202508191504",0,11.9366,"72.0",212,0,-4.4,5280,"8.96578",-10.218645291,0,"1.0",Alta,"(24.0, 24.0, 2.8, 11.0)",10.04.00.16,130,-178.5,M4E,379.965,0.00275,RTK,50,,,2025-08-19T18:05:08.908639,Inconsistent,"2.8","72.0","0.002",23,,0,94.4,6.63,0.1,0,2,1,False,DJI_20250819150448_0001_V.JPG,single,42.3,"20250819",0,False,"(102.4192, 76.7368)",DJI_20250819150449_0002_D.MRK,"2.97","2.97",1581F7FVC255700DJ63S,2025:08:19 15:04:48,0,1,-90,WGS-84,0,50,"1504",0,1.6,0,-48.35918653,493OM934AB01SN,Normal,G:\teste\DJI_202508191502_001_AreaTesteLines15ms_DewarpingDesabilitado\DJI_20250819150448_0001_V.JPG,1119
3,379.843,"20250819",,,DJI_202508191502_001_AreaTesteLines15ms_DewarpingDesabilitado,teste,G:\teste\DJI_202508191502_001_AreaTesteLines15ms_DewarpingDesabilitado,0,-1,44,0.00793,43.1,0.00312,130,,14.5,M4E,G:\teste\DJI_202508191502_001_AreaTesteLines15ms_DewarpingDesabilitado,G:\teste\DJI_202508191502_001_AreaTesteLines15ms_DewarpingDesabilitado\DJI_20250819150449_0002_D.MRK,14.5014,-48.3591885,38.9188,0.28,0.46,Daylight,-10.21828494,-0.375,38.919,3956,-48.359188785,180,1.8,MPO_RGB,"12.29",75,0,DJI_202508191502_001_AreaTesteLines15ms_DewarpingDesabilitado,1.1693,4289,5819/100,167.503,-10.2182975,52.2,179.6939,14.5014,RtkAlt,167.885,5,1.9378,"202508191504",179.4061,12.2928,"72.0",212.1,99.997,-19.5,5280,"9.32193",-10.21828494,61.962,"1.0",Alta,"(24.0, 24.0, 2.8, 11.0)",10.04.00.16,130,179.2,M4E,379.843,0.00279,RTK,65,,,2025-08-19T18:05:13.606776,Inconsistent,"2.8","72.0","0.0015625",23,,0.122,109.5,6.21,0.1,0,2,1,True,DJI_20250819150453_0003_V.JPG,single,42.2,"20250819",0.3804,True,"(102.3156, 76.6592)",DJI_20250819150449_0002_D.MRK,"2.97","2.97",1581F7FVC255700DJ63S,2025:08:19 15:04:53,0,1,-90,WGS-84,7.7838,50,"1504",-0.2,-0.9,0.9863,-48.35918878,493OM934AB01SN,Normal,G:\teste\DJI_202508191502_001_AreaTesteLines15ms_DewarpingDesabilitado\DJI_20250819150453_0003_V.JPG,1120
4,379.838,"20250819",,,DJI_202508191502_001_AreaTesteLines15ms_DewarpingDesabilitado,teste,G:\teste\DJI_202508191502_001_AreaTesteLines15ms_DewarpingDesabilitado,-0.1,-5.1,44,0.00795,43.1,0.00303,130,,15.1,M4E,G:\teste\DJI_202508191502_001_AreaTesteLines15ms_DewarpingDesabilitado,G:\teste\DJI_202508191502_001_AreaTesteLines15ms_DewarpingDesabilitado\DJI_20250819150449_0002_D.MRK,15.1017,-48.359186,39.0081,0.2802,0.3,Daylight,-10.21792927,-0.775,39.0081,3956,-48.359185861,180,1.4,MPO_RGB,"12.29",75,0,DJI_202508191502_001_AreaTesteLines15ms_DewarpingDesabilitado,1.2154,4333,5819/100,167.489,-10.2179467,54.4,180.4018,15.1017,RtkAlt,168.207,3,1.9415,"202508191504",179.7018,12.2928,"72.0",211.7,99.9977,-16.3,5280,"9.32193",-10.217929267,61.9477,"1.0",Alta,"(24.0, 24.0, 2.8, 11.0)",10.04.00.16,130,-179.9,M4E,379.838,0.00279,RTK,65,,,2025-08-19T18:05:16.238507,Inconsistent,"2.8","72.0","0.0015625",23,,0.005,106.3,6.13,0.6,0,2,1,False,DJI_20250819150456_0004_V.JPG,single,42.2,"20250819",0.3805,True,"(102.5118, 76.8062)",DJI_20250819150449_0002_D.MRK,"2.97","2.97",1581F7FVC255700DJ63S,2025:08:19 15:04:56,0.7079,1,-90,WGS-84,13.0027,50,"1504",0.2,0.7,0.0203,-48.35918586,493OM934AB01SN,Normal,G:\teste\DJI_202508191502_001_AreaTesteLines15ms_DewarpingDesabilitado\DJI_20250819150456_0004_V.JPG,1121
5,379.867,"20250819",,,DJI_202508191502_001_AreaTesteLines15ms_DewarpingDesabilitado,teste,G:\teste\DJI_202508191502_001_AreaTesteLines15ms_DewarpingDesabilitado,0,-1.3,44,0.00795,43.1,0.00301,130,,15.1,M4E,G:\teste\DJI_202508191502_001_AreaTesteLines15ms_DewarpingDesabilitado,G:\teste\DJI_202508191502_001_AreaTesteLines15ms_DewarpingDesabilitado\DJI_20250819150449_0002_D.MRK,15.1,-48.359186,31.9018,0.2805,0,Daylight,-10.21764674,-0.675,31.9018,3956,-48.359186025,180,1.4,MPO_RGB,"12.29",75,0,DJI_202508191502_001_AreaTesteLines15ms_DewarpingDesabilitado,1.2158,4388,5819/100,167.511,-10.2176598,54.4,180,15.1,RtkAlt,168.131,2,1.9406,"202508191504",179.9,12.2928,"72.0",211.8,99.9993,-15.7,5280,"9.32193",-10.217646738,68.8658,"1.0",Alta,"(24.0, 24.0, 2.8, 11.0)",10.04.00.16,130,-179.9,M4E,379.867,0.00279,RTK,65,,,2025-08-19T18:05:18.316151,Inconsistent,"2.8","72.0","0.0015625",23,,0.029,105.7,6.09,0,0,2,1,False,DJI_20250819150458_0005_V.JPG,single,42.2,"20250819",0.3113,True,"(102.4655, 76.7715)",DJI_20250819150449_0002_D.MRK,"2.97","2.97",1581F7FVC255700DJ63S,2025:08:19 15:04:58,0.4018,1,-90,WGS-84,15.9509,50,"1504",0,0.1,0.0001,-48.35918602,493OM934AB01SN,Normal,G:\teste\DJI_202508191502_001_AreaTesteLines15ms_DewarpingDesabilitado\DJI_20250819150458_0005_V.JPG,1122
6,379.859,"20250819",,,DJI_202508191502_001_AreaTesteLines15ms_DewarpingDesabilitado,teste,G:\teste\DJI_202508191502_001_AreaTesteLines15ms_DewarpingDesabilitado,0,-2.6,43,0.00794,42.6,0.00301,130,,15,M4E,G:\teste\DJI_202508191502_001_AreaTesteLines15ms_DewarpingDesabilitado,G:\teste\DJI_202508191502_001_AreaTesteLines15ms_DewarpingDesabilitado\DJI_20250819150449_0002_D.MRK,15.0003,-48.3591862,34.6039,0.2807,0.05,Daylight,-10.21732877,0.125,34.6039,3956,-48.359186253,180,3.8,MPO_RGB,"12.29",60,0,DJI_202508191502_001_AreaTesteLines15ms_DewarpingDesabilitado,1.2134,4371,5819/100,167.495,-10.2173486,54,179.9638,15.0003,RtkAlt,167.343,2,1.9315,"202508191505",179.9362,12.2928,"72.0",212.6,99.9993,-15,5280,"9.32193",-10.217328766,66.0697,"1.0",Alta,"(24.0, 24.0, 2.8, 11.0)",10.04.00.16,130,180,M4E,379.859,0.00278,RTK,50,,,2025-08-19T18:05:20.657362,Inconsistent,"2.8","72.0","0.0015625",23,,0.008,105,6.07,0.1,0,2,1,False,DJI_20250819150500_0006_V.JPG,single,42.2,"20250819",0.3393,True,"(101.9853, 76.4117)",DJI_20250819150449_0002_D.MRK,"2.97","2.97",1581F7FVC255700DJ63S,2025:08:19 15:05:00,0.0362,1,-90,WGS-84,17.3019,50,"1505",0.1,-0.1,0.0033,-48.35918625,493OM934AB01SN,Normal,G:\teste\DJI_202508191502_001_AreaTesteLines15ms_DewarpingDesabilitado\DJI_20250819150500_0006_V.JPG,1123
7,379.878,"20250819",,,DJI_202508191502_001_AreaTesteLines15ms_DewarpingDesabilitado,teste,G:\teste\DJI_202508191502_001_AreaTesteLines15ms_DewarpingDesabilitado,0,-3.2,43,0.0079,42.6,0.00302,120,,14.9,M4E,G:\teste\DJI_202508191502_001_AreaTesteLines15ms_DewarpingDesabilitado,G:\teste\DJI_202508191502_001_AreaTesteLines15ms_DewarpingDesabilitado\DJI_20250819150449_0002_D.MRK,14.9,-48.3591863,37.6951,0.281,0,Daylight,-10.21700458,0.525,37.6951,3956,-48.359186401,180,1.2,MPO_RGB,"12.29",75,0,DJI_202508191502_001_AreaTesteLines15ms_DewarpingDesabilitado,1.5459,4342,5819/100,167.526,-10.2170096,53.6,179.9834,14.9,RtkAlt,167.007,3,1.9277,"202508191505",179.8834,11.9366,"72.0",213,99.9987,-16.7,5280,"8.96578",-10.21700458,62.9643,"1.0",Alta,"(24.0, 24.0, 2.8, 11.0)",10.04.00.16,120,180,M4E,379.878,0.00277,RTK,65,,,2025-08-19T18:05:23.047458,Inconsistent,"2.8","72.0","0.002",23,,0.019,106.7,6.34,0.1,0,2,1,False,DJI_20250819150503_0007_V.JPG,single,42.2,"20250819",0.3704,True,"(101.7805, 76.2583)",DJI_20250819150449_0002_D.MRK,"2.97","2.97",1581F7FVC255700DJ63S,2025:08:19 15:05:03,0.0196,1,-90,WGS-84,12.565,50,"1505",0,0.1,0.0034,-48.3591864,493OM934AB01SN,Normal,G:\teste\DJI_202508191502_001_AreaTesteLines15ms_DewarpingDesabilitado\DJI_20250819150503_0007_V.JPG,1124
8,380.005,"20250819",,,DJI_202508191502_001_AreaTesteLines15ms_DewarpingDesabilitado,teste,G:\teste\DJI_202508191502_001_AreaTesteLines15ms_DewarpingDesabilitado,0,-3.9,43,0.00798,42.6,0.00313,130,,9.2,M4E,G:\teste\DJI_202508191502_001_AreaTesteLines15ms_DewarpingDesabilitado,G:\teste\DJI_202508191502_001_AreaTesteLines15ms_DewarpingDesabilitado\DJI_20250819150449_0002_D.MRK,9.2005,-48.3591855,33.1251,0.2812,0,Daylight,-10.2167015,1.325,33.1253,3956,-48.359185564,180,0.8,MPO_RGB,"12.29",75,0,DJI_202508191502_001_AreaTesteLines15ms_DewarpingDesabilitado,0.9591,4363,5819/100,167.507,-10.2167117,33.1,180.1514,9.2005,RtkAlt,166.219,2,1.9186,"202508191505",179.4486,11.9366,"72.0",213.8,99.9943,15.7,5280,"8.96578",-10.216701501,67.3001,"1.0",Alta,"(24.0, 24.0, 2.8, 11.0)",10.04.00.16,130,180,M4E,380.005,0.00275,RTK,65,,,2025-08-19T18:05:25.621880,Inconsistent,"2.8","72.0","0.002",23,,0.127,74.3,6.69,0.4,0,2,1,False,DJI_20250819150505_0008_V.JPG,single,42.2,"20250819",0.327,True,"(101.3003, 75.8985)",DJI_20250819150449_0002_D.MRK,"2.97","2.97",1581F7FVC255700DJ63S,2025:08:19 15:05:05,0.168,1,-90,WGS-84,16.5627,50,"1505",-0.1,-0.4,0.2365,-48.35918556,493OM934AB01SN,Normal,G:\teste\DJI_202508191502_001_AreaTesteLines15ms_DewarpingDesabilitado\DJI_20250819150505_0008_V.JPG,1125
9,379.922,"20250819",,,DJI_202508191502_001_AreaTesteLines15ms_DewarpingDesabilitado,teste,G:\teste\DJI_202508191502_001_AreaTesteLines15ms_DewarpingDesabilitado,0,-2.7,43,0.00787,42.6,0.00303,120,,-8.7,M4E,G:\teste\DJI_202508191502_001_AreaTesteLines15ms_DewarpingDesabilitado,G:\teste\DJI_202508191502_001_AreaTesteLines15ms_DewarpingDesabilitado\DJI_20250819150449_0002_D.MRK,9.2027,-48.3592181,4.0852,0.2815,36.05,Daylight,-10.21670435,1.125,4.086,3956,-48.359222201,180,5,MPO_RGB,"12.29",70,0,DJI_202508191502_001_AreaTesteLines15ms_DewarpingDesabilitado,0.9577,4221,5819/100,167.603,-10.2166938,33.1,119.1583,9.2027,RtkAlt,166.5,4,1.9218,"202508191505",88.4417,11.9366,"72.0",213.6,99.9933,-27,5280,"8.96578",-10.216704355,95.974,"1.0",Alta,"(24.0, 24.0, 2.8, 11.0)",10.04.00.16,120,35.8,M4E,379.922,0.00276,RTK,60,,,2025-08-19T18:05:29.846034,Inconsistent,"2.8","72.0","0.002",23,,0.083,117,6.72,8.2,0,2,1,False,DJI_20250819150509_0009_V.JPG,single,42.2,"20250819",0.0403,True,"(101.4715, 76.0268)",DJI_20250819150449_0002_D.MRK,"2.97","2.97",1581F7FVC255700DJ63S,2025:08:19 15:05:09,60.9931,1,-90,WGS-84,1.0215,50,"1505",-3,-152.4,0.0001,-48.3592222,493OM934AB01SN,Normal,G:\teste\DJI_202508191502_001_AreaTesteLines15ms_DewarpingDesabilitado\DJI_20250819150509_0009_V.JPG,1126
10,379.879,"20250819",,,DJI_202508191502_001_AreaTesteLines15ms_DewarpingDesabilitado,teste,G:\teste\DJI_202508191502_001_AreaTesteLines15ms_DewarpingDesabilitado,0.1,0.3,43,0.00772,42.6,0.00303,120,,-14.2,M4E,G:\teste\DJI_202508191502_001_AreaTesteLines15ms_DewarpingDesabilitado,G:\teste\DJI_202508191502_001_AreaTesteLines15ms_DewarpingDesabilitado\DJI_20250819150449_0002_D.MRK,14.8963,-48.359318,34.2073,0.2818,5.6333,Daylight,-10.21700673,0.725,34.2073,3956,-48.359324697,180,1.8,MPO_RGB,"12.29",75,0,DJI_202508191502_001_AreaTesteLines15ms_DewarpingDesabilitado,1.5468,4230,5819/100,167.556,-10.2169853,53.6,18.638,14.8963,RtkAlt,166.875,3,1.9261,"202508191505",179.462,11.9366,"72.0",213.2,99.994,-21.3,5280,"8.96578",-10.217006726,66.3645,"1.0",Alta,"(24.0, 24.0, 2.8, 11.0)",10.04.00.16,120,18.9,M4E,379.879,0.00273,RTK,65,,,2025-08-19T18:05:32.583956,Inconsistent,"2.8","72.0","0.002",23,,0.043,111.3,6.45,0.8,0,2,1,False,DJI_20250819150512_0010_V.JPG,single,42.2,"20250819",0.3364,True,"(101.7001, 76.198)",DJI_20250819150449_0002_D.MRK,"2.97","2.97",1581F7FVC255700DJ63S,2025:08:19 15:05:12,100.5203,1,-90,WGS-84,11.4024,50,"1505",-4.5,-161.9,0.2363,-48.3593247,493OM934AB01SN,Normal,G:\teste\DJI_202508191502_001_AreaTesteLines15ms_DewarpingDesabilitado\DJI_20250819150512_0010_V.JPG,1127
11,379.856,"20250819",,,DJI_202508191502_001_AreaTesteLines15ms_DewarpingDesabilitado,teste,G:\teste\DJI_202508191502_001_AreaTesteLines15ms_DewarpingDesabilitado,0,1.6,43,0.00786,42.6,0.003,120,,-14.4,M4E,G:\teste\DJI_202508191502_001_AreaTesteLines15ms_DewarpingDesabilitado,G:\teste\DJI_202508191502_001_AreaTesteLines15ms_DewarpingDesabilitado\DJI_20250819150449_0002_D.MRK,15.0572,-48.3594173,37.7155,0.282,0.95,Daylight,-10.21731551,0.125,37.7155,3956,-48.359418853,180,2,MPO_RGB,"12.29",60,0,DJI_202508191502_001_AreaTesteLines15ms_DewarpingDesabilitado,1.5582,4260,5819/100,167.516,-10.2173101,54.2,16.7454,15.0572,RtkAlt,167.437,2,1.9326,"202508191505",179.9454,11.9366,"72.0",212.6,99.9957,-17.3,5280,"8.96578",-10.217315508,63.0395,"1.0",Alta,"(24.0, 24.0, 2.8, 11.0)",10.04.00.16,120,17,M4E,379.856,0.00275,RTK,50,,,2025-08-19T18:05:34.957163,Inconsistent,"2.8","72.0","0.002",23,,0.023,107.3,6.27,0.2,0,2,1,False,DJI_20250819150514_0011_V.JPG,single,42.2,"20250819",0.3696,True,"(102.0426, 76.4546)",DJI_20250819150449_0002_D.MRK,"2.97","2.97",1581F7FVC255700DJ63S,2025:08:19 15:05:14,1.8926,1,-90,WGS-84,18.8577,50,"1505",-4.4,-163.2,0.0054,-48.35941885,493OM934AB01SN,Normal,G:\teste\DJI_202508191502_001_AreaTesteLines15ms_DewarpingDesabilitado\DJI_20250819150514_0011_V.JPG,1128
12,379.872,"20250819",,,DJI_202508191502_001_AreaTesteLines15ms_DewarpingDesabilitado,teste,G:\teste\DJI_202508191502_001_AreaTesteLines15ms_DewarpingDesabilitado,-0.1,0.4,43,0.00785,42.6,0.00311,130,,-14.4,M4E,G:\teste\DJI_202508191502_001_AreaTesteLines15ms_DewarpingDesabilitado,G:\teste\DJI_202508191502_001_AreaTesteLines15ms_DewarpingDesabilitado\DJI_20250819150449_0002_D.MRK,15.0286,-48.3595086,34.6202,0.2823,0.2,Daylight,-10.21762315,-0.775,34.6202,3956,-48.359512912,180,2.4,MPO_RGB,"12.29",60,0,DJI_202508191502_001_AreaTesteLines15ms_DewarpingDesabilitado,1.2091,4308,5819/100,167.526,-10.2176082,54.1,16.7737,15.0286,RtkAlt,168.263,3,1.9422,"202508191505",179.9263,12.2928,"72.0",211.7,99.9963,-17.8,5280,"9.32193",-10.217623145,66.2393,"1.0",Alta,"(24.0, 24.0, 2.8, 11.0)",10.04.00.16,130,16.4,M4E,379.872,0.00276,RTK,50,,,2025-08-19T18:05:37.324854,Inconsistent,"2.8","72.0","0.0015625",23,,0.016,107.8,6.18,0.3,0,2,1,False,DJI_20250819150517_0012_V.JPG,single,42.2,"20250819",0.3376,True,"(102.546, 76.8318)",DJI_20250819150449_0002_D.MRK,"2.97","2.97",1581F7FVC255700DJ63S,2025:08:19 15:05:17,0.0283,1,-90,WGS-84,11.5401,50,"1505",-4.3,-163.3,0.001,-48.35951291,493OM934AB01SN,Normal,G:\teste\DJI_202508191502_001_AreaTesteLines15ms_DewarpingDesabilitado\DJI_20250819150517_0012_V.JPG,1129
13,379.839,"20250819",,,DJI_202508191502_001_AreaTesteLines15ms_DewarpingDesabilitado,teste,G:\teste\DJI_202508191502_001_AreaTesteLines15ms_DewarpingDesabilitado,0,2.6,43,0.00786,42.6,0.00301,120,,-14.4,M4E,G:\teste\DJI_202508191502_001_AreaTesteLines15ms_DewarpingDesabilitado,G:\teste\DJI_202508191502_001_AreaTesteLines15ms_DewarpingDesabilitado\DJI_20250819150449_0002_D.MRK,15.0283,-48.3596028,36.2665,0.2825,0.05,Daylight,-10.21792875,-0.475,36.2666,3956,-48.359605243,180,1.8,MPO_RGB,"12.29",75,0,DJI_202508191502_001_AreaTesteLines15ms_DewarpingDesabilitado,1.55,4300,5819/100,167.499,-10.2179209,54.1,16.5135,15.0283,RtkAlt,167.999,2,1.9391,"202508191505",179.9135,11.9366,"72.0",212,99.9967,-18.3,5280,"8.96578",-10.217928746,64.5783,"1.0",Alta,"(24.0, 24.0, 2.8, 11.0)",10.04.00.16,120,16.3,M4E,379.839,0.00275,RTK,65,,,2025-08-19T18:05:39.677010,Inconsistent,"2.8","72.0","0.002",23,,0.033,108.3,6.26,0.3,0,2,1,False,DJI_20250819150519_0013_V.JPG,single,42.2,"20250819",0.3542,True,"(102.3851, 76.7112)",DJI_20250819150449_0002_D.MRK,"2.97","2.97",1581F7FVC255700DJ63S,2025:08:19 15:05:19,0.2602,1,-90,WGS-84,18.1333,50,"1505",-4.3,-163.4,0,-48.35960524,493OM934AB01SN,Normal,G:\teste\DJI_202508191502_001_AreaTesteLines15ms_DewarpingDesabilitado\DJI_20250819150519_0013_V.JPG,1130
14,379.872,"20250819",,,DJI_202508191502_001_AreaTesteLines15ms_DewarpingDesabilitado,teste,G:\teste\DJI_202508191502_001_AreaTesteLines15ms_DewarpingDesabilitado,0,2.3,43,0.00775,42.6,0.003,130,,-14.4,M4E,G:\teste\DJI_202508191502_001_AreaTesteLines15ms_DewarpingDesabilitado,G:\teste\DJI_202508191502_001_AreaTesteLines15ms_DewarpingDesabilitado\DJI_20250819150449_0002_D.MRK,15.0283,-48.3596929,34.6998,0.2828,0,Daylight,-10.21823379,-0.975,34.6998,3956,-48.35969696,180,2.2,MPO_RGB,"12.29",60,0,DJI_202508191502_001_AreaTesteLines15ms_DewarpingDesabilitado,1.2073,4267,5819/100,167.525,-10.2182201,54.1,16.5077,15.0283,RtkAlt,168.506,3,1.945,"202508191505",179.9923,12.2928,"72.0",211.5,99.9963,-15.8,5280,"9.32193",-10.218233791,66.2105,"1.0",Alta,"(24.0, 24.0, 2.8, 11.0)",10.04.00.16,130,16.3,M4E,379.872,0.00276,RTK,50,,,2025-08-19T18:05:42.021243,Inconsistent,"2.8","72.0","0.0015625",23,,0.033,105.8,6.27,0.2,0,2,1,False,DJI_20250819150522_0014_V.JPG,single,42.2,"20250819",0.3379,True,"(102.6941, 76.9427)",DJI_20250819150449_0002_D.MRK,"2.97","2.97",1581F7FVC255700DJ63S,2025:08:19 15:05:22,0.0058,1,-90,WGS-84,11.5666,50,"1505",-4.3,-163.5,0,-48.35969696,493OM934AB01SN,Normal,G:\teste\DJI_202508191502_001_AreaTesteLines15ms_DewarpingDesabilitado\DJI_20250819150522_0014_V.JPG,1131
15,379.994,"20250819",,,DJI_202508191502_001_AreaTesteLines15ms_DewarpingDesabilitado,teste,G:\teste\DJI_202508191502_001_AreaTesteLines15ms_DewarpingDesabilitado,0,-4.3,43,0.00772,42.6,0.00299,130,,-8.5,M4E,G:\teste\DJI_202508191502_001_AreaTesteLines15ms_DewarpingDesabilitado,G:\teste\DJI_202508191502_001_AreaTesteLines15ms_DewarpingDesabilitado\DJI_20250819150449_0002_D.MRK,8.8888,-48.359789,37.1146,0.283,0.1,Fluorescent,-10.21855211,0.425,37.1148,3956,-48.359792493,180,2,MPO_RGB,"12.29",60,0,DJI_202508191502_001_AreaTesteLines15ms_DewarpingDesabilitado,0.9218,4172,5819/100,167.494,-10.2185402,32,16.4601,8.8888,RtkAlt,167.077,2,1.9285,"202508191505",179.0399,11.9366,"72.0",212.9,99.9973,13.8,5280,"8.96578",-10.21855211,63.55,"1.0",Alta,"(24.0, 24.0, 2.8, 11.0)",10.04.00.16,130,16.1,M4E,379.994,0.00272,RTK,50,,,2025-08-19T18:05:44.857984,Consistent,"2.8","72.0","0.002",23,,0.122,76.2,6.48,0.6,0,2,1,False,DJI_20250819150524_0015_V.JPG,single,42.2,"20250819",0.3645,True,"(101.8232, 76.2902)",DJI_20250819150449_0002_D.MRK,"2.97","2.97",1581F7FVC255700DJ63S,2025:08:19 15:05:24,0.0476,2,-90,WGS-84,18.5574,50,"1505",-2.6,-164.5,0.2567,-48.35979249,493OM934AB01SN,Normal,G:\teste\DJI_202508191502_001_AreaTesteLines15ms_DewarpingDesabilitado\DJI_20250819150524_0015_V.JPG,1132
16,379.892,"20250819",,,DJI_202508191502_001_AreaTesteLines15ms_DewarpingDesabilitado,teste,G:\teste\DJI_202508191502_001_AreaTesteLines15ms_DewarpingDesabilitado,0,14.2,42,0.00772,42.1,0.00302,130,,8.2,M4E,G:\teste\DJI_202508191502_001_AreaTesteLines15ms_DewarpingDesabilitado,G:\teste\DJI_202508191502_001_AreaTesteLines15ms_DewarpingDesabilitado\DJI_20250819150449_0002_D.MRK,8.2098,-48.3598284,4.8823,0.2833,30.45,Fluorescent,-10.21855355,2.225,4.8834,3956,-48.359829984,180,5.6,MPO_RGB,"12.29",70,0,DJI_202508191502_001_AreaTesteLines15ms_DewarpingDesabilitado,0.8604,4206,5819/100,167.562,-10.2185608,29.6,62.0197,8.2098,RtkAlt,165.327,4,1.9083,"202508191505",95.8197,11.9366,"72.0",214.7,99.997,-24.6,5280,"8.96578",-10.218553546,95.1544,"1.0",Alta,"(24.0, 24.0, 2.8, 11.0)",10.04.00.16,130,137.9,M4E,379.892,0.00278,RTK,60,,,2025-08-19T18:05:48.517203,Consistent,"2.8","72.0","0.002",23,,0.102,114.6,6.52,8.3,0,2,1,False,DJI_20250819150528_0016_V.JPG,single,42.2,"20250819",0.0485,True,"(100.7567, 75.4912)",DJI_20250819150449_0002_D.MRK,"2.97","2.97",1581F7FVC255700DJ63S,2025:08:19 15:05:28,45.5596,2,-90,WGS-84,1.2208,50,"1505",-0.4,-33.8,0.0397,-48.35982998,493OM934AB01SN,Normal,G:\teste\DJI_202508191502_001_AreaTesteLines15ms_DewarpingDesabilitado\DJI_20250819150528_0016_V.JPG,1133
17,379.876,"20250819",,,DJI_202508191502_001_AreaTesteLines15ms_DewarpingDesabilitado,teste,G:\teste\DJI_202508191502_001_AreaTesteLines15ms_DewarpingDesabilitado,0.1,-2.7,42,0.0077,42.1,0.00302,130,,14.9,M4E,G:\teste\DJI_202508191502_001_AreaTesteLines15ms_DewarpingDesabilitado,G:\teste\DJI_202508191502_001_AreaTesteLines15ms_DewarpingDesabilitado\DJI_20250819150449_0002_D.MRK,14.9017,-48.3598341,35.5211,0.2835,13.7333,Daylight,-10.2182241,-0.775,35.5211,3956,-48.359834416,180,3.6,MPO_RGB,"12.29",60,0,DJI_202508191502_001_AreaTesteLines15ms_DewarpingDesabilitado,1.1985,4263,5819/100,167.545,-10.2182414,53.6,178.9938,14.9017,RtkAlt,168.318,3,1.9428,"202508191505",179.8938,12.2928,"72.0",211.7,99.9963,-19.6,5280,"9.32193",-10.218224101,65.3721,"1.0",Alta,"(24.0, 24.0, 2.8, 11.0)",10.04.00.16,130,179.1,M4E,379.876,0.00269,RTK,50,,,2025-08-19T18:05:51.441243,Inconsistent,"2.8","72.0","0.0015625",23,,0.016,109.6,6.23,0,0,2,1,False,DJI_20250819150531_0017_V.JPG,single,42.2,"20250819",0.3463,True,"(102.5795, 76.8569)",DJI_20250819150449_0002_D.MRK,"2.97","2.97",1581F7FVC255700DJ63S,2025:08:19 15:05:31,116.9741,1,-90,WGS-84,11.8404,50,"1505",-0.2,-0.9,0.2896,-48.35983442,493OM934AB01SN,Normal,G:\teste\DJI_202508191502_001_AreaTesteLines15ms_DewarpingDesabilitado\DJI_20250819150531_0017_V.JPG,1134
18,379.856,"20250819",,,DJI_202508191502_001_AreaTesteLines15ms_DewarpingDesabilitado,teste,G:\teste\DJI_202508191502_001_AreaTesteLines15ms_DewarpingDesabilitado,-0.1,-2.8,42,0.00776,42.1,0.00302,120,,15.1,M4E,G:\teste\DJI_202508191502_001_AreaTesteLines15ms_DewarpingDesabilitado,G:\teste\DJI_202508191502_001_AreaTesteLines15ms_DewarpingDesabilitado\DJI_20250819150449_0002_D.MRK,15.1007,-48.359837,36.162,0.2838,0.3,Daylight,-10.21789792,-0.675,36.162,3956,-48.35983716,180,1,MPO_RGB,"12.29",75,0,DJI_202508191502_001_AreaTesteLines15ms_DewarpingDesabilitado,1.5563,4311,5819/100,167.501,-10.2179162,54.4,179.4972,15.1007,RtkAlt,168.131,2,1.9406,"202508191505",179.9972,11.9366,"72.0",211.8,99.9957,-15.6,5280,"8.96578",-10.217897917,64.7081,"1.0",Alta,"(24.0, 24.0, 2.8, 11.0)",10.04.00.16,120,179.7,M4E,379.856,0.00276,RTK,65,,,2025-08-19T18:05:53.845485,Inconsistent,"2.8","72.0","0.002",23,,0.02,105.6,6.17,0.2,0,2,1,False,DJI_20250819150533_0018_V.JPG,single,42.2,"20250819",0.3529,True,"(102.4655, 76.7715)",DJI_20250819150449_0002_D.MRK,"2.97","2.97",1581F7FVC255700DJ63S,2025:08:19 15:05:33,0.5034,1,-90,WGS-84,18.081,50,"1505",-0.1,-0.5,0.0066,-48.35983716,493OM934AB01SN,Normal,G:\teste\DJI_202508191502_001_AreaTesteLines15ms_DewarpingDesabilitado\DJI_20250819150533_0018_V.JPG,1135
19,379.885,"20250819",,,DJI_202508191502_001_AreaTesteLines15ms_DewarpingDesabilitado,teste,G:\teste\DJI_202508191502_001_AreaTesteLines15ms_DewarpingDesabilitado,0,-1.6,42,0.00803,42.05,0.00362,120,,15,M4E,G:\teste\DJI_202508191502_001_AreaTesteLines15ms_DewarpingDesabilitado,G:\teste\DJI_202508191502_001_AreaTesteLines15ms_DewarpingDesabilitado\DJI_20250819150449_0002_D.MRK,15,-48.3598375,36.1606,0.284,0.2,Daylight,-10.21757645,-0.975,36.1606,3956,-48.359837589,180,1.4,MPO_RGB,"12.29",75,0,DJI_202508191502_001_AreaTesteLines15ms_DewarpingDesabilitado,1.5424,4291,5819/100,167.534,-10.217591,54,179.9133,15,RtkAlt,168.506,3,1.945,"202508191505",179.9133,11.9366,"72.0",211.5,99.9697,-15.8,5280,"8.96578",-10.217576446,64.788,"1.0",Alta,"(24.0, 24.0, 2.8, 11.0)",10.04.00.16,120,-179.7,M4E,379.885,0.0028,RTK,65,,,2025-08-19T18:05:56.213137,Inconsistent,"2.8","72.0","0.002",23,,0.029,105.8,6.28,0.3,0,2,1,False,DJI_20250819150536_0019_V.JPG,single,42.1,"20250819",0.3521,True,"(102.6941, 76.9427)",DJI_20250819150449_0002_D.MRK,"2.97","2.97",1581F7FVC255700DJ63S,2025:08:19 15:05:36,0.4161,1,-90,WGS-84,12.0535,50,"1505",0,0,0.0033,-48.35983759,493OM934AB01SN,Normal,G:\teste\DJI_202508191502_001_AreaTesteLines15ms_DewarpingDesabilitado\DJI_20250819150536_0019_V.JPG,1136
20,379.874,"20250819",,,DJI_202508191502_001_AreaTesteLines15ms_DewarpingDesabilitado,teste,G:\teste\DJI_202508191502_001_AreaTesteLines15ms_DewarpingDesabilitado,-0.1,-1.9,42,0.00773,42.05,0.00312,130,,15.1,M4E,G:\teste\DJI_202508191502_001_AreaTesteLines15ms_DewarpingDesabilitado,G:\teste\DJI_202508191502_001_AreaTesteLines15ms_DewarpingDesabilitado\DJI_20250819150449_0002_D.MRK,15.1003,-48.3598373,36.3274,0.2843,0.1,Daylight,-10.21725992,1.125,36.3274,3956,-48.359837364,180,2.6,MPO_RGB,"12.29",60,0,DJI_202508191502_001_AreaTesteLines15ms_DewarpingDesabilitado,1.5729,4230,5819/100,167.516,-10.2172643,54.4,180.0345,15.1003,RtkAlt,166.348,2,1.9201,"202508191505",179.9655,11.9366,"72.0",213.6,99.9713,-14.9,5280,"8.96578",-10.217259921,64.1667,"1.0",Alta,"(24.0, 24.0, 2.8, 11.0)",10.04.00.16,130,-179.5,M4E,379.874,0.00274,RTK,50,,,2025-08-19T18:05:58.544088,Inconsistent,"2.8","72.0","0.002",23,,0.011,104.9,6.44,0.5,0,2,1,False,DJI_20250819150538_0020_V.JPG,single,42.1,"20250819",0.3583,True,"(101.3789, 75.9574)",DJI_20250819150449_0002_D.MRK,"2.97","2.97",1581F7FVC255700DJ63S,2025:08:19 15:05:38,0.1212,1,-90,WGS-84,18.1637,50,"1505",0,0,0.0033,-48.35983736,493OM934AB01SN,Normal,G:\teste\DJI_202508191502_001_AreaTesteLines15ms_DewarpingDesabilitado\DJI_20250819150538_0020_V.JPG,1137
21,379.833,"20250819",,,DJI_202508191502_001_AreaTesteLines15ms_DewarpingDesabilitado,teste,G:\teste\DJI_202508191502_001_AreaTesteLines15ms_DewarpingDesabilitado,0.1,-0.5,42,0.00776,42.05,0.00319,150,,15.1,M4E,G:\teste\DJI_202508191502_001_AreaTesteLines15ms_DewarpingDesabilitado,G:\teste\DJI_202508191502_001_AreaTesteLines15ms_DewarpingDesabilitado\DJI_20250819150449_0002_D.MRK,15.1003,-48.3598376,34.7818,0.2845,0.05,Fluorescent,-10.21693903,1.325,34.7818,3956,-48.359837676,180,3,MPO_RGB,"12.29",60,0,DJI_202508191502_001_AreaTesteLines15ms_DewarpingDesabilitado,1.5743,4126,5819/100,167.493,-10.2169515,54.4,179.9459,15.1003,RtkAlt,166.199,2,1.9183,"202508191505",179.9459,11.9366,"72.0",213.8,99.9947,-16.7,5280,"8.96578",-10.216939034,65.6605,"1.0",Alta,"(24.0, 24.0, 2.8, 11.0)",10.04.00.16,150,-179.6,M4E,379.833,0.0028,RTK,50,,,2025-08-19T18:06:00.913913,Consistent,"2.8","72.0","0.002",23,,0.041,106.7,6.81,0.4,0,2,1,False,DJI_20250819150540_0021_V.JPG,single,42.1,"20250819",0.3434,True,"(101.2881, 75.8893)",DJI_20250819150449_0002_D.MRK,"2.97","2.97",1581F7FVC255700DJ63S,2025:08:19 15:05:40,0.0886,2,-90,WGS-84,17.3909,50,"1505",0,0,0,-48.35983768,493OM934AB01SN,Normal,G:\teste\DJI_202508191502_001_AreaTesteLines15ms_DewarpingDesabilitado\DJI_20250819150540_0021_V.JPG,1138
22,379.85,"20250819",,,DJI_202508191502_001_AreaTesteLines15ms_DewarpingDesabilitado,teste,G:\teste\DJI_202508191502_001_AreaTesteLines15ms_DewarpingDesabilitado,0,-2.9,42,0.00767,42.05,0.00305,160,,15,M4E,G:\teste\DJI_202508191502_001_AreaTesteLines15ms_DewarpingDesabilitado,G:\teste\DJI_202508191502_001_AreaTesteLines15ms_DewarpingDesabilitado\DJI_20250819150449_0002_D.MRK,15,-48.3598371,34.4927,0.2848,0,Fluorescent,-10.2166216,1.825,34.4927,3956,-48.359837184,180,2.4,MPO_RGB,"12.29",60,0,DJI_202508191502_001_AreaTesteLines15ms_DewarpingDesabilitado,1.5683,4059,5819/100,167.512,-10.2166413,54,180.0909,15,RtkAlt,165.73,3,1.9129,"202508191505",179.9909,11.9366,"72.0",214.3,99.9897,-18.3,5280,"8.96578",-10.216621601,65.8496,"1.0",Alta,"(24.0, 24.0, 2.8, 11.0)",10.04.00.16,160,-179.6,M4E,379.85,0.00272,RTK,50,,,2025-08-19T18:06:03.257063,Consistent,"2.8","72.0","0.002",23,,0.017,108.3,7.17,0.3,0,2,1,False,DJI_20250819150543_0022_V.JPG,single,42.1,"20250819",0.3415,True,"(101.0023, 75.6752)",DJI_20250819150449_0002_D.MRK,"2.97","2.97",1581F7FVC255700DJ63S,2025:08:19 15:05:43,0.145,2,-90,WGS-84,11.4976,50,"1505",0,0.1,0.0033,-48.35983718,493OM934AB01SN,Normal,G:\teste\DJI_202508191502_001_AreaTesteLines15ms_DewarpingDesabilitado\DJI_20250819150543_0022_V.JPG,1139
23,379.841,"20250819",,,DJI_202508191502_001_AreaTesteLines15ms_DewarpingDesabilitado,teste,G:\teste\DJI_202508191502_001_AreaTesteLines15ms_DewarpingDesabilitado,-0.1,-2.3,42,0.00774,42.05,0.0033,160,,15,M4E,G:\teste\DJI_202508191502_001_AreaTesteLines15ms_DewarpingDesabilitado,G:\teste\DJI_202508191502_001_AreaTesteLines15ms_DewarpingDesabilitado\DJI_20250819150449_0002_D.MRK,15.0003,-48.3598372,34.8707,0.285,0.05,Fluorescent,-10.21630429,1.625,34.8707,3956,-48.359837242,180,2.8,MPO_RGB,"12.29",60,0,DJI_202508191502_001_AreaTesteLines15ms_DewarpingDesabilitado,1.5674,4103,5819/100,167.491,-10.2163277,54,179.982,15.0003,RtkAlt,165.824,2,1.914,"202508191505",179.982,11.9366,"72.0",214.1,99.9863,-17,5280,"8.96578",-10.216304285,65.4949,"1.0",Alta,"(24.0, 24.0, 2.8, 11.0)",10.04.00.16,160,-179.7,M4E,379.841,0.00281,RTK,50,,,2025-08-19T18:06:05.594843,Consistent,"2.8","72.0","0.002",23,,0.009,107,7.26,0.3,0,2,1,False,DJI_20250819150545_0023_V.JPG,single,42.1,"20250819",0.3451,True,"(101.0595, 75.7181)",DJI_20250819150449_0002_D.MRK,"2.97","2.97",1581F7FVC255700DJ63S,2025:08:19 15:05:45,0.1089,2,-90,WGS-84,17.4354,50,"1505",0,0,0,-48.35983724,493OM934AB01SN,Normal,G:\teste\DJI_202508191502_001_AreaTesteLines15ms_DewarpingDesabilitado\DJI_20250819150545_0023_V.JPG,1140
24,379.821,"20250819",,,DJI_202508191502_001_AreaTesteLines15ms_DewarpingDesabilitado,teste,G:\teste\DJI_202508191502_001_AreaTesteLines15ms_DewarpingDesabilitado,-0.1,-2.1,42,0.00784,42.05,0.00321,160,,15,M4E,G:\teste\DJI_202508191502_001_AreaTesteLines15ms_DewarpingDesabilitado,G:\teste\DJI_202508191502_001_AreaTesteLines15ms_DewarpingDesabilitado\DJI_20250819150449_0002_D.MRK,15.0003,-48.3598373,37.4727,0.2853,0.05,Fluorescent,-10.21598003,1.425,37.4727,3956,-48.359837296,180,2,MPO_RGB,"12.29",60,0,DJI_202508191502_001_AreaTesteLines15ms_DewarpingDesabilitado,1.5649,4122,5819/100,167.476,-10.2159907,54,179.9833,15.0003,RtkAlt,166.087,2,1.917,"202508191505",179.9833,11.9366,"72.0",213.9,99.999,-18.7,5280,"8.96578",-10.215980028,62.9789,"1.0",Alta,"(24.0, 24.0, 2.8, 11.0)",10.04.00.16,160,-179.8,M4E,379.821,0.00283,RTK,50,,,2025-08-19T18:06:07.989283,Consistent,"2.8","72.0","0.002",23,,0.02,108.7,7.29,0.2,0,2,1,False,DJI_20250819150547_0024_V.JPG,single,42.1,"20250819",0.3702,True,"(101.2198, 75.8382)",DJI_20250819150449_0002_D.MRK,"2.97","2.97",1581F7FVC255700DJ63S,2025:08:19 15:05:47,0.0013,2,-90,WGS-84,18.7363,50,"1505",0,0,0,-48.3598373,493OM934AB01SN,Normal,G:\teste\DJI_202508191502_001_AreaTesteLines15ms_DewarpingDesabilitado\DJI_20250819150547_0024_V.JPG,1141
25,379.894,"20250819",,,DJI_202508191502_001_AreaTesteLines15ms_DewarpingDesabilitado,teste,G:\teste\DJI_202508191502_001_AreaTesteLines15ms_DewarpingDesabilitado,0,-3.7,42,0.00768,42.05,0.00327,160,,15.1,M4E,G:\teste\DJI_202508191502_001_AreaTesteLines15ms_DewarpingDesabilitado,G:\teste\DJI_202508191502_001_AreaTesteLines15ms_DewarpingDesabilitado\DJI_20250819150449_0002_D.MRK,15.1,-48.3598365,36.283,0.2855,0,Fluorescent,-10.21565847,2.025,36.2831,3956,-48.359836522,180,2.4,MPO_RGB,"12.29",60,0,DJI_202508191502_001_AreaTesteLines15ms_DewarpingDesabilitado,1.5811,4131,5819/100,167.537,-10.2156644,54.4,180.1382,15.1,RtkAlt,165.485,3,1.9101,"202508191505",179.9618,11.9366,"72.0",214.5,99.9947,-15.2,5280,"8.96578",-10.215658471,64.0238,"1.0",Alta,"(24.0, 24.0, 2.8, 11.0)",10.04.00.16,160,-179.8,M4E,379.894,0.00277,RTK,50,,,2025-08-19T18:06:10.354292,Consistent,"2.8","72.0","0.002",23,,0.073,105.2,7.34,0.1,0,2,1,False,DJI_20250819150550_0025_V.JPG,single,42.1,"20250819",0.3598,True,"(100.8529, 75.5633)",DJI_20250819150449_0002_D.MRK,"2.97","2.97",1581F7FVC255700DJ63S,2025:08:19 15:05:50,0.1549,2,-90,WGS-84,12.0944,50,"1505",0,0.1,0.0033,-48.35983652,493OM934AB01SN,Normal,G:\teste\DJI_202508191502_001_AreaTesteLines15ms_DewarpingDesabilitado\DJI_20250819150550_0025_V.JPG,1142
26,379.881,"20250819",,,DJI_202508191502_001_AreaTesteLines15ms_DewarpingDesabilitado,teste,G:\teste\DJI_202508191502_001_AreaTesteLines15ms_DewarpingDesabilitado,0,-2.8,42,0.00783,42.05,0.00323,160,,15.1,M4E,G:\teste\DJI_202508191502_001_AreaTesteLines15ms_DewarpingDesabilitado,G:\teste\DJI_202508191502_001_AreaTesteLines15ms_DewarpingDesabilitado\DJI_20250819150449_0002_D.MRK,15.1,-48.3598367,34.8374,0.2858,0.05,Fluorescent,-10.21534301,3.825,34.8374,3956,-48.359836724,180,1.8,MPO_RGB,"12.29",75,0,DJI_202508191502_001_AreaTesteLines15ms_DewarpingDesabilitado,1.5982,4143,5819/100,167.523,-10.2153511,54.4,179.964,15.1,RtkAlt,163.714,2,1.8897,"202508191505",179.964,11.9366,"72.0",216.3,99.9947,-14.9,5280,"8.96578",-10.215343014,65.0835,"1.0",Alta,"(24.0, 24.0, 2.8, 11.0)",10.04.00.16,160,-179.9,M4E,379.881,0.00282,RTK,65,,,2025-08-19T18:06:12.680992,Consistent,"2.8","72.0","0.002",23,,0.013,104.9,7.31,0.1,0,2,1,False,DJI_20250819150552_0026_V.JPG,single,42.1,"20250819",0.3492,True,"(99.7736, 74.7546)",DJI_20250819150449_0002_D.MRK,"2.97","2.97",1581F7FVC255700DJ63S,2025:08:19 15:05:52,0.1742,2,-90,WGS-84,17.4187,50,"1505",0,0,0,-48.35983672,493OM934AB01SN,Normal,G:\teste\DJI_202508191502_001_AreaTesteLines15ms_DewarpingDesabilitado\DJI_20250819150552_0026_V.JPG,1143
27,379.884,"20250819",,,DJI_202508191502_001_AreaTesteLines15ms_DewarpingDesabilitado,teste,G:\teste\DJI_202508191502_001_AreaTesteLines15ms_DewarpingDesabilitado,0,-2.3,42,0.00767,42.05,0.00309,150,,14.9,M4E,G:\teste\DJI_202508191502_001_AreaTesteLines15ms_DewarpingDesabilitado,G:\teste\DJI_202508191502_001_AreaTesteLines15ms_DewarpingDesabilitado\DJI_20250819150449_0002_D.MRK,14.9,-48.3598372,34.5261,0.286,0,Fluorescent,-10.21502211,1.625,34.5261,3956,-48.359837304,180,1.2,MPO_RGB,"12.29",75,0,DJI_202508191502_001_AreaTesteLines15ms_DewarpingDesabilitado,1.5559,4139,5819/100,167.527,-10.2150406,53.6,179.9092,14.9,RtkAlt,165.935,3,1.9153,"202508191505",179.9908,11.9366,"72.0",214.1,99.9877,-15.4,5280,"8.96578",-10.215022108,65.8587,"1.0",Alta,"(24.0, 24.0, 2.8, 11.0)",10.04.00.16,150,-179.9,M4E,379.884,0.00275,RTK,65,,,2025-08-19T18:06:15.047491,Consistent,"2.8","72.0","0.002",23,,0.003,105.4,7.13,0.2,0,2,1,False,DJI_20250819150555_0027_V.JPG,single,42.1,"20250819",0.3414,True,"(101.1272, 75.7688)",DJI_20250819150449_0002_D.MRK,"2.97","2.97",1581F7FVC255700DJ63S,2025:08:19 15:05:55,0.0548,2,-90,WGS-84,11.5087,50,"1505",0,-0.1,0.0067,-48.3598373,493OM934AB01SN,Normal,G:\teste\DJI_202508191502_001_AreaTesteLines15ms_DewarpingDesabilitado\DJI_20250819150555_0027_V.JPG,1144
28,379.894,"20250819",,,DJI_202508191502_001_AreaTesteLines15ms_DewarpingDesabilitado,teste,G:\teste\DJI_202508191502_001_AreaTesteLines15ms_DewarpingDesabilitado,0,-3.9,42,0.00768,42.05,0.0031,150,,15,M4E,G:\teste\DJI_202508191502_001_AreaTesteLines15ms_DewarpingDesabilitado,G:\teste\DJI_202508191502_001_AreaTesteLines15ms_DewarpingDesabilitado\DJI_20250819150449_0002_D.MRK,15,-48.3598369,36.2607,0.2863,0.05,Fluorescent,-10.21470525,2.325,36.2607,3956,-48.359836986,180,1.4,MPO_RGB,"12.29",75,0,DJI_202508191502_001_AreaTesteLines15ms_DewarpingDesabilitado,1.5735,4113,5819/100,167.544,-10.2147145,54,180.0519,15,RtkAlt,165.183,2,1.9066,"202508191505",179.9519,11.9366,"72.0",214.8,99.9997,-15.5,5280,"8.96578",-10.214705255,63.9802,"1.0",Alta,"(24.0, 24.0, 2.8, 11.0)",10.04.00.16,150,180,M4E,379.894,0.00272,RTK,65,,,2025-08-19T18:06:17.384910,Consistent,"2.8","72.0","0.002",23,,0.01,105.5,6.97,0.1,0,2,1,False,DJI_20250819150557_0028_V.JPG,single,42.1,"20250819",0.3602,True,"(100.6689, 75.4254)",DJI_20250819150449_0002_D.MRK,"2.97","2.97",1581F7FVC255700DJ63S,2025:08:19 15:05:57,0.1427,2,-90,WGS-84,18.1303,50,"1505",0,0.1,0.0033,-48.35983699,493OM934AB01SN,Normal,G:\teste\DJI_202508191502_001_AreaTesteLines15ms_DewarpingDesabilitado\DJI_20250819150557_0028_V.JPG,1145
29,379.843,"20250819",,,DJI_202508191502_001_AreaTesteLines15ms_DewarpingDesabilitado,teste,G:\teste\DJI_202508191502_001_AreaTesteLines15ms_DewarpingDesabilitado,0,-3.8,42,0.00763,42.05,0.00306,140,,15,M4E,G:\teste\DJI_202508191502_001_AreaTesteLines15ms_DewarpingDesabilitado,G:\teste\DJI_202508191502_001_AreaTesteLines15ms_DewarpingDesabilitado\DJI_20250819150449_0002_D.MRK,15.0003,-48.3598375,34.6706,0.2865,0,Fluorescent,-10.21438684,1.125,34.6707,3956,-48.359837551,180,0.8,MPO_RGB,"12.29",75,0,DJI_202508191502_001_AreaTesteLines15ms_DewarpingDesabilitado,1.5625,4163,5819/100,167.49,-10.2144027,54,179.8915,15.0003,RtkAlt,166.351,2,1.9201,"202508191505",179.8915,11.9366,"72.0",213.6,99.9973,-13.9,5280,"8.96578",-10.214386841,65.8016,"1.0",Alta,"(24.0, 24.0, 2.8, 11.0)",10.04.00.16,140,180,M4E,379.843,0.00273,RTK,65,,,2025-08-19T18:06:19.733404,Consistent,"2.8","72.0","0.002",23,,0.051,103.9,6.76,0,0,2,1,False,DJI_20250819150559_0029_V.JPG,single,42.1,"20250819",0.342,True,"(101.3807, 75.9587)",DJI_20250819150449_0002_D.MRK,"2.97","2.97",1581F7FVC255700DJ63S,2025:08:19 15:05:59,0.1604,2,-90,WGS-84,17.3353,50,"1505",0.1,0,0,-48.35983755,493OM934AB01SN,Normal,G:\teste\DJI_202508191502_001_AreaTesteLines15ms_DewarpingDesabilitado\DJI_20250819150559_0029_V.JPG,1146
30,379.886,"20250819",,,DJI_202508191502_001_AreaTesteLines15ms_DewarpingDesabilitado,teste,G:\teste\DJI_202508191502_001_AreaTesteLines15ms_DewarpingDesabilitado,0.1,-0.1,42,0.00768,42.05,0.00304,130,,14.8,M4E,G:\teste\DJI_202508191502_001_AreaTesteLines15ms_DewarpingDesabilitado,G:\teste\DJI_202508191502_001_AreaTesteLines15ms_DewarpingDesabilitado\DJI_20250819150449_0002_D.MRK,14.8007,-48.3598375,36.1717,0.2868,0.0333,Daylight,-10.21406401,1.225,36.1717,3956,-48.359837597,180,1.2,MPO_RGB,"12.29",75,0,DJI_202508191502_001_AreaTesteLines15ms_DewarpingDesabilitado,1.542,4371,5819/100,167.528,-10.2140774,53.3,180,14.8007,RtkAlt,166.313,3,1.9197,"202508191506",179.8,11.9366,"72.0",213.7,99.9983,-14,5280,"8.96578",-10.214064012,64.3128,"1.0",Alta,"(24.0, 24.0, 2.8, 11.0)",10.04.00.16,130,179.9,M4E,379.886,0.00275,RTK,65,,,2025-08-19T18:06:22.115559,Inconsistent,"2.8","72.0","0.002",23,,0.043,104,6.58,0.1,0,2,1,False,DJI_20250819150602_0030_V.JPG,single,42.1,"20250819",0.3569,True,"(101.3576, 75.9414)",DJI_20250819150449_0002_D.MRK,"2.97","2.97",1581F7FVC255700DJ63S,2025:08:19 15:06:02,0.1085,1,-90,WGS-84,12.0572,50,"1506",-0.1,-0.2,0.0067,-48.3598376,493OM934AB01SN,Normal,G:\teste\DJI_202508191502_001_AreaTesteLines15ms_DewarpingDesabilitado\DJI_20250819150602_0030_V.JPG,1147
31,379.857,"20250819",,,DJI_202508191502_001_AreaTesteLines15ms_DewarpingDesabilitado,teste,G:\teste\DJI_202508191502_001_AreaTesteLines15ms_DewarpingDesabilitado,0,0.3,42,0.00764,42.05,0.00308,130,,15,M4E,G:\teste\DJI_202508191502_001_AreaTesteLines15ms_DewarpingDesabilitado,G:\teste\DJI_202508191502_001_AreaTesteLines15ms_DewarpingDesabilitado\DJI_20250819150449_0002_D.MRK,15,-48.3598375,36.2273,0.287,0.05,Daylight,-10.21374201,4.825,36.2273,3956,-48.359837513,180,1.6,MPO_RGB,"12.29",75,0,DJI_202508191502_001_AreaTesteLines15ms_DewarpingDesabilitado,1.2479,4482,5819/100,167.518,-10.2137516,54,180,15,RtkAlt,162.712,2,1.8781,"202508191506",179.9,12.2928,"72.0",217.3,99.9983,-17.8,5280,"9.32193",-10.21374201,63.4669,"1.0",Alta,"(24.0, 24.0, 2.8, 11.0)",10.04.00.16,130,180,M4E,379.857,0.0028,RTK,65,,,2025-08-19T18:06:24.492874,Inconsistent,"2.8","72.0","0.0015625",23,,0.029,107.8,6.5,0.1,0,2,1,False,DJI_20250819150604_0031_V.JPG,single,42.1,"20250819",0.3653,True,"(99.163, 74.2971)",DJI_20250819150449_0002_D.MRK,"2.97","2.97",1581F7FVC255700DJ63S,2025:08:19 15:06:04,0,1,-90,WGS-84,18.1137,50,"1506",0,-0.1,0.0067,-48.35983751,493OM934AB01SN,Normal,G:\teste\DJI_202508191502_001_AreaTesteLines15ms_DewarpingDesabilitado\DJI_20250819150604_0031_V.JPG,1148
32,379.842,"20250819",,,DJI_202508191502_001_AreaTesteLines15ms_DewarpingDesabilitado,teste,G:\teste\DJI_202508191502_001_AreaTesteLines15ms_DewarpingDesabilitado,0,-0.9,42,0.0076,42.05,0.00304,130,,15.1,M4E,G:\teste\DJI_202508191502_001_AreaTesteLines15ms_DewarpingDesabilitado,G:\teste\DJI_202508191502_001_AreaTesteLines15ms_DewarpingDesabilitado\DJI_20250819150449_0002_D.MRK,15.1,-48.3598369,34.5038,0.2873,0,Daylight,-10.2134275,1.225,34.5039,3956,-48.359837026,180,3,MPO_RGB,"12.29",60,0,DJI_202508191502_001_AreaTesteLines15ms_DewarpingDesabilitado,1.2291,4614,5819/100,167.493,-10.2134413,54.4,180.109,15.1,RtkAlt,166.313,2,1.9197,"202508191506",179.791,12.2928,"72.0",213.7,99.9957,-15.7,5280,"9.32193",-10.213427497,65.9583,"1.0",Alta,"(24.0, 24.0, 2.8, 11.0)",10.04.00.16,130,180,M4E,379.842,0.00275,RTK,50,,,2025-08-19T18:06:26.812809,Inconsistent,"2.8","72.0","0.0015625",23,,0.015,105.7,6.48,0.1,0,2,1,False,DJI_20250819150606_0032_V.JPG,single,42.1,"20250819",0.3404,True,"(101.3576, 75.9414)",DJI_20250819150449_0002_D.MRK,"2.97","2.97",1581F7FVC255700DJ63S,2025:08:19 15:06:06,0.109,1,-90,WGS-84,17.2519,50,"1506",0,-0.1,0.0033,-48.35983703,493OM934AB01SN,Normal,G:\teste\DJI_202508191502_001_AreaTesteLines15ms_DewarpingDesabilitado\DJI_20250819150606_0032_V.JPG,1149
33,380.016,"20250819",,,DJI_202508191502_001_AreaTesteLines15ms_DewarpingDesabilitado,teste,G:\teste\DJI_202508191502_001_AreaTesteLines15ms_DewarpingDesabilitado,0.1,-8.4,42,0.00759,42.05,0.00303,130,,8.1,M4E,G:\teste\DJI_202508191502_001_AreaTesteLines15ms_DewarpingDesabilitado,G:\teste\DJI_202508191502_001_AreaTesteLines15ms_DewarpingDesabilitado\DJI_20250819150449_0002_D.MRK,8.1031,-48.3598373,35.0598,0.2875,0,Daylight,-10.2131218,1.525,35.0602,3956,-48.359837417,180,5.6,MPO_RGB,"12.29",60,0,DJI_202508191502_001_AreaTesteLines15ms_DewarpingDesabilitado,0.6608,4735,5819/100,167.521,-10.213126,29.2,179.9285,8.1031,RtkAlt,165.994,3,1.916,"202508191506",178.5715,12.2928,"72.0",214,99.999,17.7,5280,"9.32193",-10.213121804,65.3433,"1.0",Alta,"(24.0, 24.0, 2.8, 11.0)",10.04.00.16,130,180,M4E,380.016,0.00274,RTK,50,,,2025-08-19T18:06:29.555399,Inconsistent,"2.8","72.0","0.0015625",23,,0.174,72.3,6.38,1.5,0,2,1,False,DJI_20250819150609_0033_V.JPG,single,42.1,"20250819",0.3466,True,"(101.1631, 75.7957)",DJI_20250819150449_0002_D.MRK,"2.97","2.97",1581F7FVC255700DJ63S,2025:08:19 15:06:09,0.1805,1,-90,WGS-84,11.6867,50,"1506",-0.2,-1.5,0.3016,-48.35983742,493OM934AB01SN,Normal,G:\teste\DJI_202508191502_001_AreaTesteLines15ms_DewarpingDesabilitado\DJI_20250819150609_0033_V.JPG,1150
34,379.889,"20250819",,,DJI_202508191502_001_AreaTesteLines15ms_DewarpingDesabilitado,teste,G:\teste\DJI_202508191502_001_AreaTesteLines15ms_DewarpingDesabilitado,0.1,-18.7,42,0.00974,42,0.00335,120,,-9.1,M4E,G:\teste\DJI_202508191502_001_AreaTesteLines15ms_DewarpingDesabilitado,G:\teste\DJI_202508191502_001_AreaTesteLines15ms_DewarpingDesabilitado\DJI_20250819150449_0002_D.MRK,9.1929,-48.3598509,3.0265,0.2878,32.75,Daylight,-10.21315772,2.225,3.0292,3956,-48.359853327,180,1.6,MPO_RGB,"12.29",85,0,DJI_202508191502_001_AreaTesteLines15ms_DewarpingDesabilitado,0.7526,4651,5819/100,167.561,-10.2131497,33.1,29.4555,9.1929,RtkAlt,165.348,4,1.9085,"202508191506",167.6555,12.2928,"72.0",214.7,99.9083,-23.9,5280,"9.32193",-10.213157721,96.9966,"1.0",Alta,"(24.0, 24.0, 2.8, 11.0)",10.04.00.16,120,49,M4E,379.889,0.00302,RTK,75,,,2025-08-19T18:06:33.405778,Inconsistent,"2.8","72.0","0.0015625",23,,0.127,113.9,6.55,7.2,0,2,2,False,DJI_20250819150613_0034_V.JPG,single,42,"20250819",0.03,True,"(100.7694, 75.5007)",DJI_20250819150449_0002_D.MRK,"2.97","2.97",1581F7FVC255700DJ63S,2025:08:19 15:06:13,150.473,1,-90,WGS-84,0.7573,50,"1506",-1.3,-138.2,0.063,-48.35985333,493OM934AB01SN,Normal,G:\teste\DJI_202508191502_001_AreaTesteLines15ms_DewarpingDesabilitado\DJI_20250819150613_0034_V.JPG,1151
35,379.829,"20250819",,,DJI_202508191502_001_AreaTesteLines15ms_DewarpingDesabilitado,teste,G:\teste\DJI_202508191502_001_AreaTesteLines15ms_DewarpingDesabilitado,0,1.9,42,0.00787,42,0.00315,130,,-14.8,M4E,G:\teste\DJI_202508191502_001_AreaTesteLines15ms_DewarpingDesabilitado,G:\teste\DJI_202508191502_001_AreaTesteLines15ms_DewarpingDesabilitado\DJI_20250819150449_0002_D.MRK,14.8862,-48.3598909,36.7778,0.288,14.1333,Daylight,-10.21349076,0.925,36.7779,3956,-48.359892311,180,2.4,MPO_RGB,"12.29",60,0,DJI_202508191502_001_AreaTesteLines15ms_DewarpingDesabilitado,1.21,4598,5819/100,167.486,-10.2134781,53.6,6.8356,14.8862,RtkAlt,166.538,3,1.9222,"202508191506",179.6644,12.2928,"72.0",213.4,99.9233,-17.8,5280,"9.32193",-10.213490764,63.7638,"1.0",Alta,"(24.0, 24.0, 2.8, 11.0)",10.04.00.16,130,6.6,M4E,379.829,0.00279,RTK,50,,,2025-08-19T18:06:36.211227,Inconsistent,"2.8","72.0","0.0015625",23,,0.06,107.8,6.54,0.1,0,2,2,False,DJI_20250819150616_0035_V.JPG,single,42,"20250819",0.3624,True,"(101.4947, 76.0441)",DJI_20250819150449_0002_D.MRK,"2.97","2.97",1581F7FVC255700DJ63S,2025:08:19 15:06:16,22.6199,1,-90,WGS-84,12.2593,50,"1506",-1.6,-173.5,0.2364,-48.35989231,493OM934AB01SN,Normal,G:\teste\DJI_202508191502_001_AreaTesteLines15ms_DewarpingDesabilitado\DJI_20250819150616_0035_V.JPG,1152
36,379.866,"20250819",,,DJI_202508191502_001_AreaTesteLines15ms_DewarpingDesabilitado,teste,G:\teste\DJI_202508191502_001_AreaTesteLines15ms_DewarpingDesabilitado,-0.1,-1.3,42,0.00768,42,0.00304,130,,-14.9,M4E,G:\teste\DJI_202508191502_001_AreaTesteLines15ms_DewarpingDesabilitado,G:\teste\DJI_202508191502_001_AreaTesteLines15ms_DewarpingDesabilitado\DJI_20250819150449_0002_D.MRK,15.0087,-48.3599284,34.6918,0.2883,0.05,Daylight,-10.21381374,1.125,34.6918,3956,-48.359931442,180,1.8,MPO_RGB,"12.29",75,0,DJI_202508191502_001_AreaTesteLines15ms_DewarpingDesabilitado,1.2209,4471,5819/100,167.506,-10.2137879,54,6.7935,15.0087,RtkAlt,166.407,2,1.9207,"202508191506",179.7935,12.2928,"72.0",213.6,99.987,-15.8,5280,"9.32193",-10.213813738,65.7922,"1.0",Alta,"(24.0, 24.0, 2.8, 11.0)",10.04.00.16,130,6.7,M4E,379.866,0.0027,RTK,65,,,2025-08-19T18:06:38.608167,Inconsistent,"2.8","72.0","0.0015625",23,,0.037,105.8,6.56,0.3,0,2,2,False,DJI_20250819150618_0036_V.JPG,single,42,"20250819",0.3421,True,"(101.4148, 75.9843)",DJI_20250819150449_0002_D.MRK,"2.97","2.97",1581F7FVC255700DJ63S,2025:08:19 15:06:18,0.0421,1,-90,WGS-84,17.3459,50,"1506",-1.8,-173,0.0041,-48.35993144,493OM934AB01SN,Normal,G:\teste\DJI_202508191502_001_AreaTesteLines15ms_DewarpingDesabilitado\DJI_20250819150618_0036_V.JPG,1153
37,379.906,"20250819",,,DJI_202508191502_001_AreaTesteLines15ms_DewarpingDesabilitado,teste,G:\teste\DJI_202508191502_001_AreaTesteLines15ms_DewarpingDesabilitado,0,2.5,42,0.00775,42,0.00311,130,,-14.9,M4E,G:\teste\DJI_202508191502_001_AreaTesteLines15ms_DewarpingDesabilitado,G:\teste\DJI_202508191502_001_AreaTesteLines15ms_DewarpingDesabilitado\DJI_20250819150449_0002_D.MRK,14.9857,-48.3599648,36.2799,0.2885,0.1,Daylight,-10.21412413,3.425,36.2799,3956,-48.359966037,180,1,MPO_RGB,"12.29",75,0,DJI_202508191502_001_AreaTesteLines15ms_DewarpingDesabilitado,1.5826,4356,5819/100,167.544,-10.2141122,53.9,6.3035,14.9857,RtkAlt,164.072,2,1.8938,"202508191506",179.8965,11.9366,"72.0",215.9,99.9917,-15.8,5280,"8.96578",-10.214124125,63.7171,"1.0",Alta,"(24.0, 24.0, 2.8, 11.0)",10.04.00.16,130,6.5,M4E,379.906,0.00281,RTK,65,,,2025-08-19T18:06:40.909042,Inconsistent,"2.8","72.0","0.002",23,,0.04,105.8,6.7,0.3,0,2,2,False,DJI_20250819150620_0037_V.JPG,single,42,"20250819",0.3628,True,"(99.9918, 74.9181)",DJI_20250819150449_0002_D.MRK,"2.97","2.97",1581F7FVC255700DJ63S,2025:08:19 15:06:20,0.49,1,-90,WGS-84,18.1399,50,"1506",-1.6,-173.8,0.0008,-48.35996604,493OM934AB01SN,Normal,G:\teste\DJI_202508191502_001_AreaTesteLines15ms_DewarpingDesabilitado\DJI_20250819150620_0037_V.JPG,1154
38,379.864,"20250819",,,DJI_202508191502_001_AreaTesteLines15ms_DewarpingDesabilitado,teste,G:\teste\DJI_202508191502_001_AreaTesteLines15ms_DewarpingDesabilitado,0,1.7,42,0.0076,42,0.00302,150,,-14.8,M4E,G:\teste\DJI_202508191502_001_AreaTesteLines15ms_DewarpingDesabilitado,G:\teste\DJI_202508191502_001_AreaTesteLines15ms_DewarpingDesabilitado\DJI_20250819150449_0002_D.MRK,14.8973,-48.3600013,36.1816,0.2888,0.0333,Fluorescent,-10.21444081,0.925,36.1816,3956,-48.360001733,180,1.4,MPO_RGB,"12.29",75,0,DJI_202508191502_001_AreaTesteLines15ms_DewarpingDesabilitado,1.5493,4164,5819/100,167.516,-10.2144356,53.6,6.3381,14.8973,RtkAlt,166.614,3,1.9231,"202508191506",179.9619,11.9366,"72.0",213.4,99.9883,-17.2,5280,"8.96578",-10.214440808,64.3675,"1.0",Alta,"(24.0, 24.0, 2.8, 11.0)",10.04.00.16,150,6.4,M4E,379.864,0.0027,RTK,65,,,2025-08-19T18:06:43.259572,Consistent,"2.8","72.0","0.002",23,,0.042,107.2,6.85,0.1,0,2,2,False,DJI_20250819150623_0038_V.JPG,single,42,"20250819",0.3563,True,"(101.541, 76.0788)",DJI_20250819150449_0002_D.MRK,"2.97","2.97",1581F7FVC255700DJ63S,2025:08:19 15:06:23,0.0346,2,-90,WGS-84,12.0605,50,"1506",-1.7,-173.7,0.003,-48.36000173,493OM934AB01SN,Normal,G:\teste\DJI_202508191502_001_AreaTesteLines15ms_DewarpingDesabilitado\DJI_20250819150623_0038_V.JPG,1155
39,379.873,"20250819",,,DJI_202508191502_001_AreaTesteLines15ms_DewarpingDesabilitado,teste,G:\teste\DJI_202508191502_001_AreaTesteLines15ms_DewarpingDesabilitado,0,2.6,42,0.00764,42,0.00311,150,,-14.9,M4E,G:\teste\DJI_202508191502_001_AreaTesteLines15ms_DewarpingDesabilitado,G:\teste\DJI_202508191502_001_AreaTesteLines15ms_DewarpingDesabilitado\DJI_20250819150449_0002_D.MRK,14.9967,-48.3600361,34.5475,0.289,0,Fluorescent,-10.21476279,1.925,34.5475,3956,-48.360038135,180,1.8,MPO_RGB,"12.29",75,0,DJI_202508191502_001_AreaTesteLines15ms_DewarpingDesabilitado,1.5692,4093,5819/100,167.527,-10.2147444,54,6.3287,14.9967,RtkAlt,165.599,2,1.9114,"202508191506",179.9287,11.9366,"72.0",214.4,99.9927,-16.9,5280,"8.96578",-10.214762788,65.7683,"1.0",Alta,"(24.0, 24.0, 2.8, 11.0)",10.04.00.16,150,6.4,M4E,379.873,0.00279,RTK,65,,,2025-08-19T18:06:45.646463,Consistent,"2.8","72.0","0.002",23,,0.009,106.9,7.14,0,0,2,2,False,DJI_20250819150625_0039_V.JPG,single,42,"20250819",0.3423,True,"(100.9224, 75.6154)",DJI_20250819150449_0002_D.MRK,"2.97","2.97",1581F7FVC255700DJ63S,2025:08:19 15:06:25,0.0094,2,-90,WGS-84,17.2738,50,"1506",-1.7,-173.6,0.0033,-48.36003813,493OM934AB01SN,Normal,G:\teste\DJI_202508191502_001_AreaTesteLines15ms_DewarpingDesabilitado\DJI_20250819150625_0039_V.JPG,1156
40,379.857,"20250819",,,DJI_202508191502_001_AreaTesteLines15ms_DewarpingDesabilitado,teste,G:\teste\DJI_202508191502_001_AreaTesteLines15ms_DewarpingDesabilitado,0,1,42,0.00758,42,0.00304,160,,-14.9,M4E,G:\teste\DJI_202508191502_001_AreaTesteLines15ms_DewarpingDesabilitado,G:\teste\DJI_202508191502_001_AreaTesteLines15ms_DewarpingDesabilitado\DJI_20250819150449_0002_D.MRK,14.9857,-48.3600732,36.1889,0.2893,0,Fluorescent,-10.21508229,2.225,36.1889,3956,-48.360074693,180,1.2,MPO_RGB,"12.29",75,0,DJI_202508191502_001_AreaTesteLines15ms_DewarpingDesabilitado,1.5712,4106,5819/100,167.51,-10.2150678,53.9,6.4414,14.9857,RtkAlt,165.259,3,1.9075,"202508191506",179.9586,11.9366,"72.0",214.7,99.9937,-16.3,5280,"8.96578",-10.215082288,64.0681,"1.0",Alta,"(24.0, 24.0, 2.8, 11.0)",10.04.00.16,160,6.4,M4E,379.857,0.00273,RTK,65,,,2025-08-19T18:06:48.016729,Consistent,"2.8","72.0","0.002",23,,0.016,106.3,7.33,0,0,2,2,False,DJI_20250819150628_0040_V.JPG,single,42,"20250819",0.3593,True,"(100.7152, 75.4601)",DJI_20250819150449_0002_D.MRK,"2.97","2.97",1581F7FVC255700DJ63S,2025:08:19 15:06:28,0.1127,2,-90,WGS-84,12.063,50,"1506",-1.6,-173.6,0.0004,-48.36007469,493OM934AB01SN,Normal,G:\teste\DJI_202508191502_001_AreaTesteLines15ms_DewarpingDesabilitado\DJI_20250819150628_0040_V.JPG,1157
41,379.888,"20250819",,,DJI_202508191502_001_AreaTesteLines15ms_DewarpingDesabilitado,teste,G:\teste\DJI_202508191502_001_AreaTesteLines15ms_DewarpingDesabilitado,0,2.1,42,0.00755,42,0.00302,170,,-14.9,M4E,G:\teste\DJI_202508191502_001_AreaTesteLines15ms_DewarpingDesabilitado,G:\teste\DJI_202508191502_001_AreaTesteLines15ms_DewarpingDesabilitado\DJI_20250819150449_0002_D.MRK,14.9967,-48.3601093,36.1326,0.2895,0,Fluorescent,-10.2153944,6.725,36.1326,3956,-48.360109549,180,3.4,MPO_RGB,"12.29",60,0,DJI_202508191502_001_AreaTesteLines15ms_DewarpingDesabilitado,1.6164,4119,5819/100,167.534,-10.2153908,54,6.2769,14.9967,RtkAlt,160.765,2,1.8556,"202508191506",179.9231,11.9366,"72.0",219.2,99.9977,-15.2,5280,"8.96578",-10.215394401,63.1211,"1.0",Alta,"(24.0, 24.0, 2.8, 11.0)",10.04.00.16,170,6.4,M4E,379.888,0.00271,RTK,50,,,2025-08-19T18:06:50.332046,Consistent,"2.8","72.0","0.002",23,,0.031,105.2,7.5,0.2,0,2,2,False,DJI_20250819150630_0041_V.JPG,single,42,"20250819",0.3688,True,"(97.9764, 73.4081)",DJI_20250819150449_0002_D.MRK,"2.97","2.97",1581F7FVC255700DJ63S,2025:08:19 15:06:30,0.1645,2,-90,WGS-84,18.0663,50,"1506",-1.7,-173.8,0.0004,-48.36010955,493OM934AB01SN,Normal,G:\teste\DJI_202508191502_001_AreaTesteLines15ms_DewarpingDesabilitado\DJI_20250819150630_0041_V.JPG,1158
42,379.869,"20250819",,,DJI_202508191502_001_AreaTesteLines15ms_DewarpingDesabilitado,teste,G:\teste\DJI_202508191502_001_AreaTesteLines15ms_DewarpingDesabilitado,0,2.8,42,0.0076,42,0.00314,170,,-14.9,M4E,G:\teste\DJI_202508191502_001_AreaTesteLines15ms_DewarpingDesabilitado,G:\teste\DJI_202508191502_001_AreaTesteLines15ms_DewarpingDesabilitado\DJI_20250819150449_0002_D.MRK,14.9857,-48.3601444,34.8495,0.2898,0.05,Fluorescent,-10.21571046,2.025,34.8496,3956,-48.36014526,180,0.8,MPO_RGB,"12.29",75,0,DJI_202508191502_001_AreaTesteLines15ms_DewarpingDesabilitado,1.5687,4103,5819/100,167.527,-10.2157023,53.9,6.3279,14.9857,RtkAlt,165.523,2,1.9105,"202508191506",179.9721,11.9366,"72.0",214.5,99.993,-16.6,5280,"8.96578",-10.21571046,65.4532,"1.0",Alta,"(24.0, 24.0, 2.8, 11.0)",10.04.00.16,170,6.5,M4E,379.869,0.00275,RTK,65,,,2025-08-19T18:06:52.680259,Consistent,"2.8","72.0","0.002",23,,0.019,106.6,7.5,0.2,0,2,2,False,DJI_20250819150632_0042_V.JPG,single,42,"20250819",0.3455,True,"(100.8761, 75.5807)",DJI_20250819150449_0002_D.MRK,"2.97","2.97",1581F7FVC255700DJ63S,2025:08:19 15:06:32,0.051,2,-90,WGS-84,17.4248,50,"1506",-1.6,-173.7,0.0004,-48.36014526,493OM934AB01SN,Normal,G:\teste\DJI_202508191502_001_AreaTesteLines15ms_DewarpingDesabilitado\DJI_20250819150632_0042_V.JPG,1159
43,379.859,"20250819",,,DJI_202508191502_001_AreaTesteLines15ms_DewarpingDesabilitado,teste,G:\teste\DJI_202508191502_001_AreaTesteLines15ms_DewarpingDesabilitado,0,0.9,42,0.00759,42,0.00314,170,,-15,M4E,G:\teste\DJI_202508191502_001_AreaTesteLines15ms_DewarpingDesabilitado,G:\teste\DJI_202508191502_001_AreaTesteLines15ms_DewarpingDesabilitado\DJI_20250819150449_0002_D.MRK,15.0851,-48.3601798,34.5438,0.29,0,Fluorescent,-10.21603028,1.425,34.5438,3956,-48.360181731,180,3.2,MPO_RGB,"12.29",60,0,DJI_202508191502_001_AreaTesteLines15ms_DewarpingDesabilitado,1.5741,4104,5819/100,167.513,-10.216011,54.3,6.439,15.0851,RtkAlt,166.049,3,1.9166,"202508191506",179.961,11.9366,"72.0",213.9,99.9993,-17.3,5280,"8.96578",-10.216030279,65.8647,"1.0",Alta,"(24.0, 24.0, 2.8, 11.0)",10.04.00.16,170,6.5,M4E,379.859,0.00274,RTK,50,,,2025-08-19T18:06:55.053620,Consistent,"2.8","72.0","0.002",23,,0.01,107.3,7.52,0.1,0,2,2,False,DJI_20250819150635_0043_V.JPG,single,42,"20250819",0.3414,True,"(101.1967, 75.8208)",DJI_20250819150449_0002_D.MRK,"2.97","2.97",1581F7FVC255700DJ63S,2025:08:19 15:06:35,0.1111,2,-90,WGS-84,11.5146,50,"1506",-1.6,-173.6,0.0033,-48.36018173,493OM934AB01SN,Normal,G:\teste\DJI_202508191502_001_AreaTesteLines15ms_DewarpingDesabilitado\DJI_20250819150635_0043_V.JPG,1160
44,379.861,"20250819",,,DJI_202508191502_001_AreaTesteLines15ms_DewarpingDesabilitado,teste,G:\teste\DJI_202508191502_001_AreaTesteLines15ms_DewarpingDesabilitado,0,2.5,41,0.00758,41.5,0.00314,170,,-14.9,M4E,G:\teste\DJI_202508191502_001_AreaTesteLines15ms_DewarpingDesabilitado,G:\teste\DJI_202508191502_001_AreaTesteLines15ms_DewarpingDesabilitado\DJI_20250819150449_0002_D.MRK,14.9967,-48.3602148,36.1638,0.2903,0,Fluorescent,-10.21634612,1.325,36.1638,3956,-48.360216074,180,5.6,MPO_RGB,"12.29",60,0,DJI_202508191502_001_AreaTesteLines15ms_DewarpingDesabilitado,1.5633,4116,5819/100,167.519,-10.2163344,54,6.0796,14.9967,RtkAlt,166.222,2,1.9186,"202508191506",179.6796,11.9366,"72.0",213.8,99.9997,-18.3,5280,"8.96578",-10.216346123,64.301,"1.0",Alta,"(24.0, 24.0, 2.8, 11.0)",10.04.00.16,170,6.5,M4E,379.861,0.00274,RTK,50,,,2025-08-19T18:06:57.398099,Consistent,"2.8","72.0","0.002",23,,0.002,108.3,7.52,0.1,0,2,2,False,DJI_20250819150637_0044_V.JPG,single,42,"20250819",0.357,True,"(101.3021, 75.8998)",DJI_20250819150449_0002_D.MRK,"2.97","2.97",1581F7FVC255700DJ63S,2025:08:19 15:06:37,0.3594,2,-90,WGS-84,18.0819,50,"1506",-1.7,-173.6,0.0029,-48.36021607,493OM934AB01SN,Normal,G:\teste\DJI_202508191502_001_AreaTesteLines15ms_DewarpingDesabilitado\DJI_20250819150637_0044_V.JPG,1161
45,379.855,"20250819",,,DJI_202508191502_001_AreaTesteLines15ms_DewarpingDesabilitado,teste,G:\teste\DJI_202508191502_001_AreaTesteLines15ms_DewarpingDesabilitado,0,1.3,41,0.00751,41.5,0.0031,170,,-14.9,M4E,G:\teste\DJI_202508191502_001_AreaTesteLines15ms_DewarpingDesabilitado,G:\teste\DJI_202508191502_001_AreaTesteLines15ms_DewarpingDesabilitado\DJI_20250819150449_0002_D.MRK,14.9967,-48.3602508,34.8605,0.2905,0,Fluorescent,-10.21666901,1.925,34.8605,3956,-48.360253337,180,3,MPO_RGB,"12.29",60,0,DJI_202508191502_001_AreaTesteLines15ms_DewarpingDesabilitado,1.5688,4086,5819/100,167.507,-10.2166459,54,6.4888,14.9967,RtkAlt,165.634,2,1.9118,"202508191506",179.9112,11.9366,"72.0",214.4,99.9963,-16.8,5280,"8.96578",-10.216669008,65.4654,"1.0",Alta,"(24.0, 24.0, 2.8, 11.0)",10.04.00.16,170,6.5,M4E,379.855,0.00274,RTK,50,,,2025-08-19T18:06:59.791997,Consistent,"2.8","72.0","0.002",23,,0.006,106.8,7.45,0.1,0,2,2,False,DJI_20250819150639_0045_V.JPG,single,42,"20250819",0.3453,True,"(100.9437, 75.6313)",DJI_20250819150449_0002_D.MRK,"2.97","2.97",1581F7FVC255700DJ63S,2025:08:19 15:06:39,0.4092,2,-90,WGS-84,17.4303,50,"1506",-1.7,-173.6,0,-48.36025334,493OM934AB01SN,Normal,G:\teste\DJI_202508191502_001_AreaTesteLines15ms_DewarpingDesabilitado\DJI_20250819150639_0045_V.JPG,1162
46,379.852,"20250819",,,DJI_202508191502_001_AreaTesteLines15ms_DewarpingDesabilitado,teste,G:\teste\DJI_202508191502_001_AreaTesteLines15ms_DewarpingDesabilitado,0,-0.6,41,0.00749,41.5,0.00302,160,,-14.9,M4E,G:\teste\DJI_202508191502_001_AreaTesteLines15ms_DewarpingDesabilitado,G:\teste\DJI_202508191502_001_AreaTesteLines15ms_DewarpingDesabilitado\DJI_20250819150449_0002_D.MRK,15.0083,-48.3602887,37.5578,0.2908,0,Fluorescent,-10.21698724,1.325,37.5578,3956,-48.360289325,180,2.2,MPO_RGB,"12.29",60,0,DJI_202508191502_001_AreaTesteLines15ms_DewarpingDesabilitado,1.5647,4111,5819/100,167.498,-10.2169816,54,6.34,15.0083,RtkAlt,166.199,3,1.9183,"202508191506",179.84,11.9366,"72.0",213.8,99.9953,-16.4,5280,"8.96578",-10.216987241,62.9198,"1.0",Alta,"(24.0, 24.0, 2.8, 11.0)",10.04.00.16,160,6.5,M4E,379.852,0.0027,RTK,50,,,2025-08-19T18:07:02.152079,Consistent,"2.8","72.0","0.002",23,,0.003,106.4,7.13,0,0,2,2,False,DJI_20250819150642_0046_V.JPG,single,42,"20250819",0.3708,True,"(101.2881, 75.8893)",DJI_20250819150449_0002_D.MRK,"2.97","2.97",1581F7FVC255700DJ63S,2025:08:19 15:06:42,0.1488,2,-90,WGS-84,12.5193,50,"1506",-1.8,-173.5,0.0004,-48.36028933,493OM934AB01SN,Normal,G:\teste\DJI_202508191502_001_AreaTesteLines15ms_DewarpingDesabilitado\DJI_20250819150642_0046_V.JPG,1163
