foto,alt,data_name,numdovoo,nomedovoo,pasta1,pasta2,mrk_folder,FlightYawDegree,abrupt_change_flag,GimbalRollDegree,format,DroneModel,dt_time,light_source_classification,distance_3d_previous,ExifImageHeight,photogrammetry_quality_index,trajectory_smoothness,incidence_angle,LRFTargetAlt,speed_variation_index,DateTimeOriginal,file,YResolution,CameraSerialNumber,FNumber,dt_date,gimbal_angular_velocity,linear_velocity_instant,RtkDiffAge,rtk_effective_precision,FlightXSpeed,ShutterSpeedValue,FocusDistance,ShutterCount,path,yaw_alignment_error,avg_velocity_between_photos,shutter_life_pct,FolderLevel2,geodesic_distance_previous,GimbalYawDegree,RtkStdHgt,FlightRollDegree,DigitalZoomRatio,speed_3d_kmh,dt_full,RtkStdLon,predicted_overlap,Model,FlightName,orthorectification_potential,is_ideal_overlap,LRFTargetLon,lon,ExposureMode,DroneSerialNumber,XResolution,mrk_path,ISOSpeedRatings,motion_blur_risk,FlightPitchDegree,displacement_direction,total_heat_index,AbsoluteAltitude,FlightZSpeed,RelativeAltitude,FileType,ExposureTime,RtkStdLat,capture_efficiency,vertical_stability,LRFTargetDistance,LRFTargetLat,exposure_value_ev,estimated_coverage,RtkFlag,size_mb,rtk_stability_score,lat,ApertureValue,ground_sample_distance_cm,GimbalOffset,ExifImageWidth,Software,LensSpecification,FocalLength,MaxApertureValue,GimbalPitchDegree,FlightYSpeed,mrk_file,strip_id,3DSpeed,LightSource,light_consistency,ExposureProgram,time_since_previous,FlightNumber,FolderLevel1
1,,,,,,,F:\AGROCERRADO\Faz Talisma Correntina\INPUT\20260401\M3E\DJI_202604011322_001_m2,"-17.50",False,"+180.00",MPO_RGB,M3E,"1206",Daylight,"0.0","3956","35","0.0","91.8","0.000","0.0",2026:04:01 13:29:05,DJI_20260401132905_0001_V.JPG,"72.0",493ON344AB04YQ,"2.8","20260404","0.0","0.2449","1.00000",Média,"0.2","7.9658","15371","51355",F:\AGROCERRADO\Faz Talisma Correntina\INPUT\20260401\M3E\DJI_202604011322_001_m2\DJI_20260401132905_0001_V.JPG,"0.0","0.0","12.8387",,"0.0","+163.80","0.03745","-1.30","1.0","0.9","202604041206","0.01301","0.0",M3E,,"15",False,"0.0000000",,"0",1581F5FH82577002N061,"72.0",,"110","0.0101","-1.80","0.0","0.0","+986.086","0.1","+186.209",.JPG,"0.004","0.01268","0.0","0.0","0.000","0.0000000","10.9366","(600.9588, 450.2639)","50","12.78","0.0",,"2.97","9.6745","1.3","5280",11.09.08.24,"(0.24, 0.24, 2.8, 11.0)","12.29","2.97","-90.00","-0.1",,"1","0.2449","1",Unknown,"2","0.0",,
2,,,,,,,F:\AGROCERRADO\Faz Talisma Correntina\INPUT\20260401\M3E\DJI_202604011322_001_m2,"-18.00",True,"+0.00",MPO_RGB,M3E,"1207",Daylight,"0.06","3956","45","0.0","103.0","0.000","0.9628",2026:04:01 13:29:13,DJI_20260401132913_0002_V.JPG,"72.0",493ON344AB04YQ,"2.8","20260404","22.2875","12.9341","0.80000",Média,"12.3","8.9658","15371","51356",F:\AGROCERRADO\Faz Talisma Correntina\INPUT\20260401\M3E\DJI_202604011322_001_m2\DJI_20260401132913_0002_V.JPG,"18.0","0.0075","12.839",,"0.0","-17.90","0.03719","+0.20","1.0","46.6","202604041207","0.01292","100.0",M3E,,"25",True,"0.0000000",,"0",1581F5FH82577002N061,"72.0",,"270","0.2674","-13.10","0.0","0.0","+986.026","0.0","+186.176",.JPG,"0.002","0.01241","0.0","0.06","0.000","0.0000000","11.9366","(600.9223, 450.2365)","50","12.84","99.9793",,"2.97","9.6739","0.1","5280",11.09.08.24,"(0.24, 0.24, 2.8, 11.0)","12.29","2.97","-89.90","-4.0",,"1","12.9341","1",Unknown,"2","8.0",,
3,,,,,,,F:\AGROCERRADO\Faz Talisma Correntina\INPUT\20260401\M3E\DJI_202604011322_001_m2,"-18.10",False,"+180.00",MPO_RGB,M3E,"1207",Daylight,"0.019","3956","45","0.0","101.2","0.000","0.0715",2026:04:01 13:29:16,DJI_20260401132916_0003_V.JPG,"72.0",493ON344AB04YQ,"2.8","20260404","60.0","14.9265","1.40000",Média,"14.2","8.9658","15371","51357",F:\AGROCERRADO\Faz Talisma Correntina\INPUT\20260401\M3E\DJI_202604011322_001_m2\DJI_20260401132916_0003_V.JPG,"18.1","0.0063","12.8392",,"0.0","+162.10","0.03691","+0.60","1.0","53.7","202604041207","0.01277","100.0",M3E,,"25",True,"0.0000000",,"0",1581F5FH82577002N061,"72.0",,"200","0.3086","-11.20","0.0","0.0","+986.045","0.0","+186.170",.JPG,"0.002","0.01226","0.0","0.019","0.000","0.0000000","11.9366","(600.9339, 450.2451)","50","12.53","99.9807",,"2.97","9.6741","0.2","5280",11.09.08.24,"(0.24, 0.24, 2.8, 11.0)","12.29","2.97","-90.00","-4.6",,"1","14.9265","1",Unknown,"2","3.0",,
4,,,,,,,F:\AGROCERRADO\Faz Talisma Correntina\INPUT\20260401\M3E\DJI_202604011322_001_m2,"-18.00",False,"+180.00",MPO_RGB,M3E,"1205",Daylight,"0.032","3956","45","0.0","100.5","0.000","0.0032",2026:04:01 13:29:19,DJI_20260401132919_0004_V.JPG,"72.0",493ON344AB04YQ,"2.8","20260404","0.0","14.8314","1.60000",Média,"14.1","8.9658","15371","51358",F:\AGROCERRADO\Faz Talisma Correntina\INPUT\20260401\M3E\DJI_202604011322_001_m2\DJI_20260401132919_0004_V.JPG,"18.0","0.0107","12.8395",,"0.0","+162.10","0.03666","+0.00","1.0","53.4","202604041205","0.01270","100.0",M3E,,"25",True,"0.0000000",,"0",1581F5FH82577002N061,"72.0",,"210","0.3066","-10.50","0.0","0.0","+986.013","0.0","+186.183",.JPG,"0.002","0.01220","0.0","0.032","0.000","0.0000000","11.9366","(600.9144, 450.2305)","50","12.67","99.9873",,"2.97","9.6738","0.1","5280",11.09.08.24,"(0.24, 0.24, 2.8, 11.0)","12.29","2.97","-90.00","-4.6",,"1","14.8314","1",Unknown,"2","3.0",,
5,,,,,,,F:\AGROCERRADO\Faz Talisma Correntina\INPUT\20260401\M3E\DJI_202604011322_001_m2,"-18.00",False,"+180.00",MPO_RGB,M3E,"1206",Daylight,"0.025","3956","45","0.0","100.8","0.000","0.0032",2026:04:01 13:29:23,DJI_20260401132923_0005_V.JPG,"72.0",493ON344AB04YQ,"2.8","20260404","0.025","14.9265","1.00000",Média,"14.2","8.9658","15371","51359",F:\AGROCERRADO\Faz Talisma Correntina\INPUT\20260401\M3E\DJI_202604011322_001_m2\DJI_20260401132923_0005_V.JPG,"18.0","0.0062","12.8398",,"0.0","+162.20","0.03666","+0.80","1.0","53.7","202604041206","0.01276","100.0",M3E,,"25",True,"0.0000000",,"0",1581F5FH82577002N061,"72.0",,"190","0.3086","-10.80","0.0","0.0","+985.988","0.0","+186.154",.JPG,"0.002","0.01225","0.0","0.025","0.000","0.0000000","11.9366","(600.8991, 450.2191)","50","12.34","99.9963",,"2.97","9.6736","0.2","5280",11.09.08.24,"(0.24, 0.24, 2.8, 11.0)","12.29","2.97","-90.00","-4.6",,"1","14.9265","1",Unknown,"2","4.0",,
6,,,,,,,F:\AGROCERRADO\Faz Talisma Correntina\INPUT\20260401\M3E\DJI_202604011322_001_m2,"-18.00",False,"+0.00",MPO_RGB,M3E,"1207",Fluorescent,"0.01","3956","45","0.0","100.4","0.000","0.0",2026:04:01 13:29:26,DJI_20260401132926_0006_V.JPG,"72.0",493ON344AB04YQ,"2.8","20260404","60.0","14.9265","1.20000",Média,"14.2","8.9658","15371","51360",F:\AGROCERRADO\Faz Talisma Correntina\INPUT\20260401\M3E\DJI_202604011322_001_m2\DJI_20260401132926_0006_V.JPG,"18.0","0.0033","12.84",,"0.0","-17.80","0.03645","+0.70","1.0","53.7","202604041207","0.01262","100.0",M3E,,"25",True,"0.0000000",,"0",1581F5FH82577002N061,"72.0",,"240","0.3086","-10.50","0.0","0.0","+985.998","0.0","+186.146",.JPG,"0.002","0.01207","0.0","0.01","0.000","0.0000000","11.9366","(600.9052, 450.2237)","50","13.12","99.9823",,"2.97","9.6737","0.2","5280",11.09.08.24,"(0.24, 0.24, 2.8, 11.0)","12.29","2.97","-89.90","-4.6",,"1","14.9265","2",Unknown,"2","3.0",,
7,,,,,,,F:\AGROCERRADO\Faz Talisma Correntina\INPUT\20260401\M3E\DJI_202604011322_001_m2,"-18.00",False,"+180.00",MPO_RGB,M3E,"1207",Fluorescent,"0.02","3956","45","0.0","100.5","0.000","0.0",2026:04:01 13:29:29,DJI_20260401132929_0007_V.JPG,"72.0",493ON344AB04YQ,"2.8","20260404","60.0","14.9265","1.60000",Média,"14.2","8.9658","15371","51361",F:\AGROCERRADO\Faz Talisma Correntina\INPUT\20260401\M3E\DJI_202604011322_001_m2\DJI_20260401132929_0007_V.JPG,"18.0","0.0067","12.8403",,"0.0","+162.20","0.03624","+0.60","1.0","53.7","202604041207","0.01262","100.0",M3E,,"25",True,"0.0000000",,"0",1581F5FH82577002N061,"72.0",,"230","0.3086","-10.50","0.0","0.0","+986.018","0.0","+186.161",.JPG,"0.002","0.01210","0.0","0.02","0.000","0.0000000","11.9366","(600.9174, 450.2328)","50","13.06","99.994",,"2.97","9.6739","0.2","5280",11.09.08.24,"(0.24, 0.24, 2.8, 11.0)","12.29","2.97","-90.00","-4.6",,"1","14.9265","2",Unknown,"2","3.0",,
8,,,,,,,F:\AGROCERRADO\Faz Talisma Correntina\INPUT\20260401\M3E\DJI_202604011322_001_m2,"-18.00",False,"+0.00",MPO_RGB,M3E,"1207",Fluorescent,"0.026","3956","45","0.0","100.1","0.000","0.0032",2026:04:01 13:29:33,DJI_20260401132933_0008_V.JPG,"72.0",493ON344AB04YQ,"2.8","20260404","45.0","14.8314","0.80000",Média,"14.1","8.9658","15371","51362",F:\AGROCERRADO\Faz Talisma Correntina\INPUT\20260401\M3E\DJI_202604011322_001_m2\DJI_20260401132933_0008_V.JPG,"18.0","0.0065","12.8405",,"0.0","-17.80","0.03620","+0.60","1.0","53.4","202604041207","0.01256","100.0",M3E,,"25",True,"0.0000000",,"0",1581F5FH82577002N061,"72.0",,"230","0.3066","-10.20","0.0","0.0","+985.992","0.0","+186.155",.JPG,"0.002","0.01199","0.0","0.026","0.000","0.0000000","11.9366","(600.9016, 450.2209)","50","13.05","99.993",,"2.97","9.6736","0.2","5280",11.09.08.24,"(0.24, 0.24, 2.8, 11.0)","12.29","2.97","-89.90","-4.6",,"1","14.8314","2",Unknown,"2","4.0",,
9,,,,,,,F:\AGROCERRADO\Faz Talisma Correntina\INPUT\20260401\M3E\DJI_202604011322_001_m2,"-18.00",False,"+0.00",MPO_RGB,M3E,"1206",Fluorescent,"0.005","3956","45","0.0","100.4","0.000","0.0",2026:04:01 13:29:36,DJI_20260401132936_0009_V.JPG,"72.0",493ON344AB04YQ,"2.8","20260404","0.0","14.8314","1.20000",Média,"14.1","8.9658","15371","51363",F:\AGROCERRADO\Faz Talisma Correntina\INPUT\20260401\M3E\DJI_202604011322_001_m2\DJI_20260401132936_0009_V.JPG,"18.0","0.0017","12.8407",,"0.0","-17.80","0.03594","-0.30","1.0","53.4","202604041206","0.01243","100.0",M3E,,"25",True,"0.0000000",,"0",1581F5FH82577002N061,"72.0",,"230","0.3066","-10.50","0.0","0.0","+985.987","0.0","+186.141",.JPG,"0.002","0.01191","0.0","0.005","0.000","0.0000000","11.9366","(600.8985, 450.2187)","50","12.99","99.9843",,"2.97","9.6736","0.2","5280",11.09.08.24,"(0.24, 0.24, 2.8, 11.0)","12.29","2.97","-89.90","-4.6",,"1","14.8314","2",Unknown,"2","3.0",,
10,,,,,,,F:\AGROCERRADO\Faz Talisma Correntina\INPUT\20260401\M3E\DJI_202604011322_001_m2,"-18.00",False,"+0.00",MPO_RGB,M3E,"1207",Fluorescent,"0.011","3956","45","0.0","100.1","0.000","0.0",2026:04:01 13:29:39,DJI_20260401132939_0010_V.JPG,"72.0",493ON344AB04YQ,"2.8","20260404","0.0333","14.8314","1.40000",Média,"14.1","8.9658","15371","51364",F:\AGROCERRADO\Faz Talisma Correntina\INPUT\20260401\M3E\DJI_202604011322_001_m2\DJI_20260401132939_0010_V.JPG,"18.0","0.0037","12.841",,"0.0","-17.90","0.03607","+0.30","1.0","53.4","202604041207","0.01249","100.0",M3E,,"25",True,"0.0000000",,"0",1581F5FH82577002N061,"72.0",,"220","0.3066","-10.20","0.0","0.0","+985.998","0.0","+186.142",.JPG,"0.002","0.01194","0.0","0.011","0.000","0.0000000","11.9366","(600.9052, 450.2237)","50","13.01","99.9927",,"2.97","9.6737","0.1","5280",11.09.08.24,"(0.24, 0.24, 2.8, 11.0)","12.29","2.97","-89.90","-4.6",,"1","14.8314","2",Unknown,"2","3.0",,
11,,,,,,,F:\AGROCERRADO\Faz Talisma Correntina\INPUT\20260401\M3E\DJI_202604011322_001_m2,"-18.00",False,"+180.00",MPO_RGB,M3E,"1206",Fluorescent,"0.007","3956","45","0.0","100.1","0.000","0.0",2026:04:01 13:29:42,DJI_20260401132942_0011_V.JPG,"72.0",493ON344AB04YQ,"2.8","20260404","60.0","14.8314","0.80000",Média,"14.1","8.9658","15371","51365",F:\AGROCERRADO\Faz Talisma Correntina\INPUT\20260401\M3E\DJI_202604011322_001_m2\DJI_20260401132942_0011_V.JPG,"18.0","0.0023","12.8413",,"0.0","+162.10","0.03593","-0.20","1.0","53.4","202604041206","0.01244","100.0",M3E,,"25",True,"0.0000000",,"0",1581F5FH82577002N061,"72.0",,"220","0.3066","-10.10","0.0","0.0","+985.991","0.0","+186.147",.JPG,"0.002","0.01188","0.0","0.007","0.000","0.0000000","11.9366","(600.9009, 450.2205)","50","12.95","99.9917",,"2.97","9.6736","0.1","5280",11.09.08.24,"(0.24, 0.24, 2.8, 11.0)","12.29","2.97","-90.00","-4.6",,"1","14.8314","2",Unknown,"2","3.0",,
12,,,,,,,F:\AGROCERRADO\Faz Talisma Correntina\INPUT\20260401\M3E\DJI_202604011322_001_m2,"-18.00",False,"+180.00",MPO_RGB,M3E,"1206",Fluorescent,"0.033","3956","45","0.0","99.9","0.000","0.0",2026:04:01 13:29:46,DJI_20260401132946_0012_V.JPG,"72.0",493ON344AB04YQ,"2.8","20260404","0.0","14.8314","1.00000",Média,"14.1","8.9658","15371","51366",F:\AGROCERRADO\Faz Talisma Correntina\INPUT\20260401\M3E\DJI_202604011322_001_m2\DJI_20260401132946_0012_V.JPG,"18.0","0.0083","12.8415",,"0.0","+162.10","0.03584","+0.10","1.0","53.4","202604041206","0.01244","100.0",M3E,,"25",True,"0.0000000",,"0",1581F5FH82577002N061,"72.0",,"220","0.3066","-9.90","0.0","0.0","+985.958","0.0","+186.116",.JPG,"0.002","0.01188","0.0","0.033","0.000","0.0000000","11.9366","(600.8808, 450.2054)","50","12.97","99.997",,"2.97","9.6733","0.1","5280",11.09.08.24,"(0.24, 0.24, 2.8, 11.0)","12.29","2.97","-90.00","-4.6",,"1","14.8314","2",Unknown,"2","4.0",,
13,,,,,,,F:\AGROCERRADO\Faz Talisma Correntina\INPUT\20260401\M3E\DJI_202604011322_001_m2,"-18.00",False,"+0.00",MPO_RGB,M3E,"1206",Fluorescent,"0.046","3956","45","0.0","99.8","0.000","0.0",2026:04:01 13:29:49,DJI_20260401132949_0013_V.JPG,"72.0",493ON344AB04YQ,"2.8","20260404","60.0","14.8314","1.20000",Média,"14.1","8.9658","15371","51367",F:\AGROCERRADO\Faz Talisma Correntina\INPUT\20260401\M3E\DJI_202604011322_001_m2\DJI_20260401132949_0013_V.JPG,"18.0","0.0153","12.8417",,"0.0","-17.90","0.03617","+0.00","1.0","53.4","202604041206","0.01238","100.0",M3E,,"25",True,"0.0000000",,"0",1581F5FH82577002N061,"72.0",,"220","0.3066","-9.90","0.0","0.0","+986.004","0.0","+186.151",.JPG,"0.002","0.01180","0.0","0.046","0.000","0.0000000","11.9366","(600.9089, 450.2264)","50","12.98","99.9937",,"2.97","9.6737","0.1","5280",11.09.08.24,"(0.24, 0.24, 2.8, 11.0)","12.29","2.97","-89.90","-4.6",,"1","14.8314","2",Unknown,"2","3.0",,
14,,,,,,,F:\AGROCERRADO\Faz Talisma Correntina\INPUT\20260401\M3E\DJI_202604011322_001_m2,"-18.00",False,"+180.00",MPO_RGB,M3E,"1206",Fluorescent,"0.009","3956","75","0.0","99.8","0.000","0.0",2026:04:01 13:29:52,DJI_20260401132952_0014_V.JPG,"72.0",493ON344AB04YQ,"2.8","20260404","60.0","14.8314","1.60000",Alta,"14.1","8.9658","15371","51368",F:\AGROCERRADO\Faz Talisma Correntina\INPUT\20260401\M3E\DJI_202604011322_001_m2\DJI_20260401132952_0014_V.JPG,"18.0","0.003","12.842",,"0.0","+162.10","0.03558","+0.00","1.0","53.4","202604041206","0.01228","100.0",M3E,,"55",True,"0.0000000",,"0",1581F5FH82577002N061,"72.0",,"220","0.3066","-9.80","0.0","0.0","+985.995","0.0","+186.149",.JPG,"0.002","0.01174","0.0","0.009","0.000","0.0000000","11.9366","(600.9034, 450.2223)","50","13.0","99.975",,"2.97","9.6736","0.1","5280",11.09.08.24,"(0.24, 0.24, 2.8, 11.0)","12.29","2.97","-90.00","-4.6",,"1","14.8314","2",Unknown,"2","3.0",,
15,,,,,,,F:\AGROCERRADO\Faz Talisma Correntina\INPUT\20260401\M3E\DJI_202604011322_001_m2,"-18.00",False,"+180.00",MPO_RGB,M3E,"1207",Fluorescent,"0.009","3956","75","0.0","99.8","0.000","0.0",2026:04:01 13:29:56,DJI_20260401132956_0015_V.JPG,"72.0",493ON344AB04YQ,"2.8","20260404","0.025","14.8314","0.80000",Alta,"14.1","8.9658","15371","51369",F:\AGROCERRADO\Faz Talisma Correntina\INPUT\20260401\M3E\DJI_202604011322_001_m2\DJI_20260401132956_0015_V.JPG,"18.0","0.0023","12.8422",,"0.0","+162.20","0.03554","+0.10","1.0","53.4","202604041207","0.01230","100.0",M3E,,"55",True,"0.0000000",,"0",1581F5FH82577002N061,"72.0",,"220","0.3066","-9.80","0.0","0.0","+985.986","0.0","+186.141",.JPG,"0.002","0.01175","0.0","0.009","0.000","0.0000000","11.9366","(600.8979, 450.2182)","50","12.95","99.9997",,"2.97","9.6735","0.2","5280",11.09.08.24,"(0.24, 0.24, 2.8, 11.0)","12.29","2.97","-90.00","-4.6",,"1","14.8314","2",Unknown,"2","4.0",,
16,,,,,,,F:\AGROCERRADO\Faz Talisma Correntina\INPUT\20260401\M3E\DJI_202604011322_001_m2,"-18.00",False,"+0.00",MPO_RGB,M3E,"1207",Fluorescent,"0.002","3956","75","0.0","99.7","0.000","0.0",2026:04:01 13:29:59,DJI_20260401132959_0016_V.JPG,"72.0",493ON344AB04YQ,"2.8","20260404","60.0","14.8314","1.20000",Alta,"14.1","8.9658","15371","51370",F:\AGROCERRADO\Faz Talisma Correntina\INPUT\20260401\M3E\DJI_202604011322_001_m2\DJI_20260401132959_0016_V.JPG,"18.0","0.0007","12.8425",,"0.0","-17.80","0.03520","+0.90","1.0","53.4","202604041207","0.01213","100.0",M3E,,"55",True,"0.0000000",,"0",1581F5FH82577002N061,"72.0",,"220","0.3066","-9.80","0.0","0.0","+985.988","0.0","+186.134",.JPG,"0.002","0.01166","0.0","0.002","0.000","0.0000000","11.9366","(600.8991, 450.2191)","50","12.99","99.98",,"2.97","9.6736","0.2","5280",11.09.08.24,"(0.24, 0.24, 2.8, 11.0)","12.29","2.97","-89.90","-4.6",,"1","14.8314","2",Unknown,"2","3.0",,
17,,,,,,,F:\AGROCERRADO\Faz Talisma Correntina\INPUT\20260401\M3E\DJI_202604011322_001_m2,"-18.00",False,"+0.00",MPO_RGB,M3E,"1206",Fluorescent,"0.015","3956","75","0.0","100.4","0.000","0.0",2026:04:01 13:30:02,DJI_20260401133002_0017_V.JPG,"72.0",493ON344AB04YQ,"2.8","20260404","0.0","14.8314","1.60000",Alta,"14.1","8.9658","15371","51371",F:\AGROCERRADO\Faz Talisma Correntina\INPUT\20260401\M3E\DJI_202604011322_001_m2\DJI_20260401133002_0017_V.JPG,"18.0","0.005","12.8428",,"0.0","-17.80","0.03518","+0.00","1.0","53.4","202604041206","0.01221","100.0",M3E,,"55",True,"0.0000000",,"0",1581F5FH82577002N061,"72.0",,"220","0.3066","-10.50","0.0","0.0","+986.003","0.0","+186.157",.JPG,"0.002","0.01166","0.0","0.015","0.000","0.0000000","11.9366","(600.9083, 450.226)","50","12.91","99.998",,"2.97","9.6737","0.2","5280",11.09.08.24,"(0.24, 0.24, 2.8, 11.0)","12.29","2.97","-89.90","-4.6",,"1","14.8314","2",Unknown,"2","3.0",,
18,,,,,,,F:\AGROCERRADO\Faz Talisma Correntina\INPUT\20260401\M3E\DJI_202604011322_001_m2,"-18.00",False,"+180.00",MPO_RGB,M3E,"1207",Fluorescent,"0.018","3956","75","0.0","100.6","0.000","0.0",2026:04:01 13:30:05,DJI_20260401133005_0018_V.JPG,"72.0",493ON344AB04YQ,"2.8","20260404","59.9667","14.8314","0.80000",Alta,"14.1","8.9658","15371","51372",F:\AGROCERRADO\Faz Talisma Correntina\INPUT\20260401\M3E\DJI_202604011322_001_m2\DJI_20260401133005_0018_V.JPG,"18.0","0.006","12.843",,"0.0","+162.10","0.03508","-0.50","1.0","53.4","202604041207","0.01216","100.0",M3E,,"55",True,"0.0000000",,"0",1581F5FH82577002N061,"72.0",,"220","0.3066","-10.60","0.0","0.0","+985.985","0.0","+186.141",.JPG,"0.002","0.01163","0.0","0.018","0.000","0.0000000","11.9366","(600.8973, 450.2177)","50","12.95","99.994",,"2.97","9.6735","0.1","5280",11.09.08.24,"(0.24, 0.24, 2.8, 11.0)","12.29","2.97","-90.00","-4.6",,"1","14.8314","2",Unknown,"2","3.0",,
19,,,,,,,F:\AGROCERRADO\Faz Talisma Correntina\INPUT\20260401\M3E\DJI_202604011322_001_m2,"-18.10",False,"+0.00",MPO_RGB,M3E,"1207",Fluorescent,"0.0","3956","75","0.0","100.1","0.000","0.0032",2026:04:01 13:30:09,DJI_20260401133009_0019_V.JPG,"72.0",493ON344AB04YQ,"2.8","20260404","44.975","14.9265","1.20000",Alta,"14.2","8.9658","15371","51373",F:\AGROCERRADO\Faz Talisma Correntina\INPUT\20260401\M3E\DJI_202604011322_001_m2\DJI_20260401133009_0019_V.JPG,"18.1","0.0","12.8433",,"0.0","-17.80","0.03487","+0.10","1.0","53.7","202604041207","0.01205","100.0",M3E,,"55",True,"0.0000000",,"0",1581F5FH82577002N061,"72.0",,"220","0.3086","-10.20","0.0","0.0","+985.985","0.0","+186.138",.JPG,"0.002","0.01166","0.0","0.0","0.000","0.0000000","11.9366","(600.8973, 450.2177)","50","12.91","99.9903",,"2.97","9.6735","0.3","5280",11.09.08.24,"(0.24, 0.24, 2.8, 11.0)","12.29","2.97","-89.90","-4.6",,"1","14.9265","2",Unknown,"2","4.0",,
20,,,,,,,F:\AGROCERRADO\Faz Talisma Correntina\INPUT\20260401\M3E\DJI_202604011322_001_m2,"-18.00",False,"+180.00",MPO_RGB,M3E,"1207",Fluorescent,"0.001","3956","75","0.0","100.0","0.000","0.0032",2026:04:01 13:30:12,DJI_20260401133012_0020_V.JPG,"72.0",493ON344AB04YQ,"2.8","20260404","60.0","14.8314","1.40000",Alta,"14.1","8.9658","15371","51374",F:\AGROCERRADO\Faz Talisma Correntina\INPUT\20260401\M3E\DJI_202604011322_001_m2\DJI_20260401133012_0020_V.JPG,"18.0","0.0003","12.8435",,"0.0","+162.20","0.03487","+0.50","1.0","53.4","202604041207","0.01204","100.0",M3E,,"55",True,"0.0000000",,"0",1581F5FH82577002N061,"72.0",,"220","0.3066","-10.00","0.0","0.0","+985.984","0.0","+186.129",.JPG,"0.002","0.01156","0.0","0.001","0.000","0.0000000","11.9366","(600.8967, 450.2173)","50","12.96","99.9963",,"2.97","9.6735","0.2","5280",11.09.08.24,"(0.24, 0.24, 2.8, 11.0)","12.29","2.97","-90.00","-4.6",,"1","14.8314","2",Unknown,"2","3.0",,
21,,,,,,,F:\AGROCERRADO\Faz Talisma Correntina\INPUT\20260401\M3E\DJI_202604011322_001_m2,"-18.00",False,"+0.00",MPO_RGB,M3E,"1206",Fluorescent,"0.006","3956","75","0.0","100.2","0.000","0.001",2026:04:01 13:30:15,DJI_20260401133015_0021_V.JPG,"72.0",493ON344AB04YQ,"2.8","20260404","59.9667","14.8007","1.60000",Alta,"14.1","8.9658","15371","51375",F:\AGROCERRADO\Faz Talisma Correntina\INPUT\20260401\M3E\DJI_202604011322_001_m2\DJI_20260401133015_0021_V.JPG,"18.0","0.002","12.8438",,"0.0","-17.90","0.03493","-0.60","1.0","53.3","202604041206","0.01205","100.0",M3E,,"55",True,"0.0000000",,"0",1581F5FH82577002N061,"72.0",,"220","0.306","-10.30","0.0","0.0","+985.990","0.0","+186.148",.JPG,"0.002","0.01161","0.0","0.006","0.000","0.0000000","11.9366","(600.9003, 450.22)","50","13.01","99.996",,"2.97","9.6736","0.1","5280",11.09.08.24,"(0.24, 0.24, 2.8, 11.0)","12.29","2.97","-89.90","-4.5",,"1","14.8007","2",Unknown,"2","3.0",,
22,,,,,,,F:\AGROCERRADO\Faz Talisma Correntina\INPUT\20260401\M3E\DJI_202604011322_001_m2,"-18.00",False,"+0.00",MPO_RGB,M3E,"1206",Fluorescent,"0.001","3956","75","0.0","99.8","0.000","0.0",2026:04:01 13:30:19,DJI_20260401133019_0022_V.JPG,"72.0",493ON344AB04YQ,"2.8","20260404","0.0","14.8007","1.00000",Alta,"14.1","8.9658","15371","51376",F:\AGROCERRADO\Faz Talisma Correntina\INPUT\20260401\M3E\DJI_202604011322_001_m2\DJI_20260401133019_0022_V.JPG,"18.0","0.0002","12.844",,"0.0","-17.90","0.03545","-0.20","1.0","53.3","202604041206","0.01216","100.0",M3E,,"55",True,"0.0000000",,"0",1581F5FH82577002N061,"72.0",,"220","0.306","-9.90","0.0","0.0","+985.991","0.0","+186.148",.JPG,"0.002","0.01170","0.0","0.001","0.000","0.0000000","11.9366","(600.9009, 450.2205)","50","13.04","99.976",,"2.97","9.6736","0.1","5280",11.09.08.24,"(0.24, 0.24, 2.8, 11.0)","12.29","2.97","-89.90","-4.5",,"1","14.8007","2",Unknown,"2","4.0",,
23,,,,,,,F:\AGROCERRADO\Faz Talisma Correntina\INPUT\20260401\M3E\DJI_202604011322_001_m2,"-18.00",False,"+180.00",MPO_RGB,M3E,"1206",Daylight,"0.007","3956","75","0.0","99.6","0.000","0.0",2026:04:01 13:30:22,DJI_20260401133022_0023_V.JPG,"72.0",493ON344AB04YQ,"2.8","20260404","60.0","14.8007","1.20000",Alta,"14.1","8.9658","15371","51377",F:\AGROCERRADO\Faz Talisma Correntina\INPUT\20260401\M3E\DJI_202604011322_001_m2\DJI_20260401133022_0023_V.JPG,"18.0","0.0023","12.8442",,"0.0","+162.10","0.03469","-0.40","1.0","53.3","202604041206","0.01195","100.0",M3E,,"55",True,"0.0000000",,"0",1581F5FH82577002N061,"72.0",,"220","0.306","-9.60","0.0","0.0","+985.984","0.0","+186.134",.JPG,"0.002","0.01145","0.0","0.007","0.000","0.0000000","11.9366","(600.8967, 450.2173)","50","12.75","99.9593",,"2.97","9.6735","0.1","5280",11.09.08.24,"(0.24, 0.24, 2.8, 11.0)","12.29","2.97","-90.00","-4.5",,"1","14.8007","1",Unknown,"2","3.0",,
24,,,,,,,F:\AGROCERRADO\Faz Talisma Correntina\INPUT\20260401\M3E\DJI_202604011322_001_m2,"-18.00",False,"+0.00",MPO_RGB,M3E,"1207",Daylight,"0.017","3956","75","0.0","100.1","0.000","0.001",2026:04:01 13:30:25,DJI_20260401133025_0024_V.JPG,"72.0",493ON344AB04YQ,"2.8","20260404","60.0","14.8314","1.60000",Alta,"14.1","8.9658","15371","51378",F:\AGROCERRADO\Faz Talisma Correntina\INPUT\20260401\M3E\DJI_202604011322_001_m2\DJI_20260401133025_0024_V.JPG,"18.0","0.0057","12.8445",,"0.0","-17.90","0.03481","-0.10","1.0","53.4","202604041207","0.01201","100.0",M3E,,"55",True,"0.0000000",,"0",1581F5FH82577002N061,"72.0",,"190","0.3066","-10.20","0.0","0.0","+986.001","0.0","+186.151",.JPG,"0.002","0.01150","0.0","0.017","0.000","0.0000000","11.9366","(600.907, 450.225)","50","12.66","99.9923",,"2.97","9.6737","0.1","5280",11.09.08.24,"(0.24, 0.24, 2.8, 11.0)","12.29","2.97","-89.90","-4.6",,"1","14.8314","1",Unknown,"2","3.0",,
25,,,,,,,F:\AGROCERRADO\Faz Talisma Correntina\INPUT\20260401\M3E\DJI_202604011322_001_m2,"-18.00",False,"+180.00",MPO_RGB,M3E,"1207",Daylight,"0.019","3956","75","0.0","100.2","0.000","0.0022",2026:04:01 13:30:29,DJI_20260401133029_0025_V.JPG,"72.0",493ON344AB04YQ,"2.8","20260404","45.0","14.896","0.80000",Alta,"14.2","8.9658","15371","51379",F:\AGROCERRADO\Faz Talisma Correntina\INPUT\20260401\M3E\DJI_202604011322_001_m2\DJI_20260401133029_0025_V.JPG,"18.0","0.0048","12.8447",,"0.0","+162.10","0.03471","+0.00","1.0","53.6","202604041207","0.01198","100.0",M3E,,"55",True,"0.0000000",,"0",1581F5FH82577002N061,"72.0",,"190","0.308","-10.20","0.0","0.0","+985.982","0.0","+186.142",.JPG,"0.002","0.01153","0.0","0.019","0.000","0.0000000","11.9366","(600.8955, 450.2164)","50","12.8","99.9967",,"2.97","9.6735","0.1","5280",11.09.08.24,"(0.24, 0.24, 2.8, 11.0)","12.29","2.97","-90.00","-4.5",,"1","14.896","1",Unknown,"2","4.0",,
26,,,,,,,F:\AGROCERRADO\Faz Talisma Correntina\INPUT\20260401\M3E\DJI_202604011322_001_m2,"-18.00",False,"+0.00",MPO_RGB,M3E,"1206",Daylight,"0.013","3956","75","0.0","99.3","0.000","0.0022",2026:04:01 13:30:32,DJI_20260401133032_0026_V.JPG,"72.0",493ON344AB04YQ,"2.8","20260404","60.0","14.8314","1.20000",Alta,"14.1","8.9658","15371","51380",F:\AGROCERRADO\Faz Talisma Correntina\INPUT\20260401\M3E\DJI_202604011322_001_m2\DJI_20260401133032_0026_V.JPG,"18.0","0.0043","12.845",,"0.0","-17.90","0.03443","+0.40","1.0","53.4","202604041206","0.01195","100.0",M3E,,"55",True,"0.0000000",,"0",1581F5FH82577002N061,"72.0",,"180","0.3066","-9.40","0.0","0.0","+985.969","0.0","+186.131",.JPG,"0.002","0.01139","0.0","0.013","0.000","0.0000000","11.9366","(600.8875, 450.2104)","50","13.18","99.985",,"2.97","9.6734","0.1","5280",11.09.08.24,"(0.24, 0.24, 2.8, 11.0)","12.29","2.97","-89.90","-4.6",,"1","14.8314","1",Unknown,"2","3.0",,
27,,,,,,,F:\AGROCERRADO\Faz Talisma Correntina\INPUT\20260401\M3E\DJI_202604011322_001_m2,"-17.90",False,"+0.00",MPO_RGB,M3E,"1207",Daylight,"0.009","3956","75","0.0","100.0","0.000","0.0022",2026:04:01 13:30:35,DJI_20260401133035_0027_V.JPG,"72.0",493ON344AB04YQ,"2.8","20260404","0.0","14.896","1.40000",Alta,"14.2","8.9658","15371","51381",F:\AGROCERRADO\Faz Talisma Correntina\INPUT\20260401\M3E\DJI_202604011322_001_m2\DJI_20260401133035_0027_V.JPG,"17.9","0.003","12.8453",,"0.0","-17.90","0.03454","+0.00","1.0","53.6","202604041207","0.01195","100.0",M3E,,"55",True,"0.0000000",,"0",1581F5FH82577002N061,"72.0",,"170","0.308","-10.10","0.0","0.0","+985.978","0.0","+186.127",.JPG,"0.002","0.01149","0.0","0.009","0.000","0.0000000","11.9366","(600.893, 450.2145)","50","13.51","99.993",,"2.97","9.6735","0.0","5280",11.09.08.24,"(0.24, 0.24, 2.8, 11.0)","12.29","2.97","-89.90","-4.5",,"1","14.896","1",Unknown,"2","3.0",,
28,,,,,,,F:\AGROCERRADO\Faz Talisma Correntina\INPUT\20260401\M3E\DJI_202604011322_001_m2,"-18.00",False,"+180.00",MPO_RGB,M3E,"1207",Daylight,"0.004","3956","75","0.0","100.0","0.000","0.0032",2026:04:01 13:30:38,DJI_20260401133038_0028_V.JPG,"72.0",493ON344AB04YQ,"2.8","20260404","59.9667","14.8007","0.80000",Alta,"14.1","8.9658","15371","51382",F:\AGROCERRADO\Faz Talisma Correntina\INPUT\20260401\M3E\DJI_202604011322_001_m2\DJI_20260401133038_0028_V.JPG,"18.0","0.0013","12.8455",,"0.0","+162.20","0.03437","+0.40","1.0","53.3","202604041207","0.01188","100.0",M3E,,"55",True,"0.0000000",,"0",1581F5FH82577002N061,"72.0",,"170","0.306","-10.00","0.0","0.0","+985.982","0.0","+186.145",.JPG,"0.002","0.01140","0.0","0.004","0.000","0.0000000","11.9366","(600.8955, 450.2164)","50","13.63","99.989",,"2.97","9.6735","0.2","5280",11.09.08.24,"(0.24, 0.24, 2.8, 11.0)","12.29","2.97","-90.00","-4.5",,"1","14.8007","1",Unknown,"2","3.0",,
29,,,,,,,F:\AGROCERRADO\Faz Talisma Correntina\INPUT\20260401\M3E\DJI_202604011322_001_m2,"-18.00",False,"+0.00",MPO_RGB,M3E,"1206",Daylight,"0.006","3956","75","0.0","100.5","0.000","0.001",2026:04:01 13:30:42,DJI_20260401133042_0029_V.JPG,"72.0",493ON344AB04YQ,"2.8","20260404","45.0","14.8314","1.00000",Alta,"14.1","8.9658","15371","51383",F:\AGROCERRADO\Faz Talisma Correntina\INPUT\20260401\M3E\DJI_202604011322_001_m2\DJI_20260401133042_0029_V.JPG,"18.0","0.0015","12.8458",,"0.0","-17.80","0.03452","+0.00","1.0","53.4","202604041206","0.01196","100.0",M3E,,"55",True,"0.0000000",,"0",1581F5FH82577002N061,"72.0",,"170","0.3066","-10.60","0.0","0.0","+985.976","0.0","+186.133",.JPG,"0.002","0.01145","0.0","0.006","0.000","0.0000000","11.9366","(600.8918, 450.2136)","50","13.65","99.9907",,"2.97","9.6734","0.2","5280",11.09.08.24,"(0.24, 0.24, 2.8, 11.0)","12.29","2.97","-89.90","-4.6",,"1","14.8314","1",Unknown,"2","4.0",,
30,,,,,,,F:\AGROCERRADO\Faz Talisma Correntina\INPUT\20260401\M3E\DJI_202604011322_001_m2,"-18.00",False,"+180.00",MPO_RGB,M3E,"1207",Daylight,"0.014","3956","75","0.0","100.3","0.000","0.0032",2026:04:01 13:30:45,DJI_20260401133045_0030_V.JPG,"72.0",493ON344AB04YQ,"2.8","20260404","59.9667","14.9265","1.40000",Alta,"14.2","8.9658","15371","51384",F:\AGROCERRADO\Faz Talisma Correntina\INPUT\20260401\M3E\DJI_202604011322_001_m2\DJI_20260401133045_0030_V.JPG,"18.0","0.0047","12.846",,"0.0","+162.10","0.03488","+0.50","1.0","53.7","202604041207","0.01190","100.0",M3E,,"55",True,"0.0000000",,"0",1581F5FH82577002N061,"72.0",,"170","0.3086","-10.30","0.0","0.0","+985.990","0.0","+186.128",.JPG,"0.002","0.01147","0.0","0.014","0.000","0.0000000","11.9366","(600.9003, 450.22)","50","13.44","99.9893",,"2.97","9.6736","0.1","5280",11.09.08.24,"(0.24, 0.24, 2.8, 11.0)","12.29","2.97","-90.00","-4.6",,"1","14.9265","1",Unknown,"2","3.0",,
31,,,,,,,F:\AGROCERRADO\Faz Talisma Correntina\INPUT\20260401\M3E\DJI_202604011322_001_m2,"-18.00",False,"+0.00",MPO_RGB,M3E,"1205",Daylight,"0.005","3956","75","0.0","99.8","0.000","0.0032",2026:04:01 13:30:48,DJI_20260401133048_0031_V.JPG,"72.0",493ON344AB04YQ,"2.8","20260404","59.9667","14.8314","1.60000",Alta,"14.1","8.9658","15371","51385",F:\AGROCERRADO\Faz Talisma Correntina\INPUT\20260401\M3E\DJI_202604011322_001_m2\DJI_20260401133048_0031_V.JPG,"18.0","0.0017","12.8463",,"0.0","-17.80","0.03528","+0.50","1.0","53.4","202604041205","0.01195","100.0",M3E,,"55",True,"0.0000000",,"0",1581F5FH82577002N061,"72.0",,"160","0.3066","-9.90","0.0","0.0","+985.985","0.0","+186.131",.JPG,"0.002","0.01146","0.0","0.005","0.000","0.0000000","11.9366","(600.8973, 450.2177)","50","13.42","99.9853",,"2.97","9.6735","0.2","5280",11.09.08.24,"(0.24, 0.24, 2.8, 11.0)","12.29","2.97","-89.90","-4.6",,"1","14.8314","1",Unknown,"2","3.0",,
32,,,,,,,F:\AGROCERRADO\Faz Talisma Correntina\INPUT\20260401\M3E\DJI_202604011322_001_m2,"-18.00",False,"+0.00",MPO_RGB,M3E,"1208",Daylight,"0.017","3956","75","0.0","100.3","0.000","0.0",2026:04:01 13:30:52,DJI_20260401133052_0032_V.JPG,"72.0",493ON344AB04YQ,"2.8","20260404","0.0","14.8314","1.00000",Alta,"14.1","8.9658","15371","51386",F:\AGROCERRADO\Faz Talisma Correntina\INPUT\20260401\M3E\DJI_202604011322_001_m2\DJI_20260401133052_0032_V.JPG,"18.0","0.0043","12.8465",,"0.0","-17.80","0.03455","+0.30","1.0","53.4","202604041208","0.01193","100.0",M3E,,"55",True,"0.0000000",,"0",1581F5FH82577002N061,"72.0",,"170","0.3066","-10.40","0.0","0.0","+985.968","0.0","+186.136",.JPG,"0.002","0.01140","0.0","0.017","0.000","0.0000000","11.9366","(600.8869, 450.21)","50","13.57","99.973",,"2.97","9.6734","0.2","5280",11.09.08.24,"(0.24, 0.24, 2.8, 11.0)","12.29","2.97","-89.90","-4.6",,"1","14.8314","1",Unknown,"2","4.0",,
33,,,,,,,F:\AGROCERRADO\Faz Talisma Correntina\INPUT\20260401\M3E\DJI_202604011322_001_m2,"-18.00",False,"+180.00",MPO_RGB,M3E,"1205",Daylight,"0.005","3956","75","0.0","100.5","0.000","0.0",2026:04:01 13:30:55,DJI_20260401133055_0033_V.JPG,"72.0",493ON344AB04YQ,"2.8","20260404","60.0","14.8314","1.20000",Alta,"14.1","8.9658","15371","51387",F:\AGROCERRADO\Faz Talisma Correntina\INPUT\20260401\M3E\DJI_202604011322_001_m2\DJI_20260401133055_0033_V.JPG,"18.0","0.0017","12.8468",,"0.0","+162.20","0.03419","+0.80","1.0","53.4","202604041205","0.01174","100.0",M3E,,"55",True,"0.0000000",,"0",1581F5FH82577002N061,"72.0",,"170","0.3066","-10.50","0.0","0.0","+985.973","0.0","+186.123",.JPG,"0.002","0.01130","0.0","0.005","0.000","0.0000000","11.9366","(600.89, 450.2123)","50","13.65","99.9783",,"2.97","9.6734","0.2","5280",11.09.08.24,"(0.24, 0.24, 2.8, 11.0)","12.29","2.97","-90.00","-4.6",,"1","14.8314","1",Unknown,"2","3.0",,
34,,,,,,,F:\AGROCERRADO\Faz Talisma Correntina\INPUT\20260401\M3E\DJI_202604011322_001_m2,"-18.00",False,"+0.00",MPO_RGB,M3E,"1207",Daylight,"0.024","3956","75","0.0","100.7","0.000","0.0032",2026:04:01 13:30:58,DJI_20260401133058_0034_V.JPG,"72.0",493ON344AB04YQ,"2.8","20260404","60.0","14.9265","1.60000",Alta,"14.2","8.9658","15371","51388",F:\AGROCERRADO\Faz Talisma Correntina\INPUT\20260401\M3E\DJI_202604011322_001_m2\DJI_20260401133058_0034_V.JPG,"18.0","0.008","12.847",,"0.0","-17.80","0.03441","+0.30","1.0","53.7","202604041207","0.01184","100.0",M3E,,"55",True,"0.0000000",,"0",1581F5FH82577002N061,"72.0",,"170","0.3086","-10.80","0.0","0.0","+985.997","0.0","+186.150",.JPG,"0.002","0.01138","0.0","0.024","0.000","0.0000000","11.9366","(600.9046, 450.2232)","50","13.83","99.9867",,"2.97","9.6737","0.2","5280",11.09.08.24,"(0.24, 0.24, 2.8, 11.0)","12.29","2.97","-89.90","-4.6",,"1","14.9265","1",Unknown,"2","3.0",,
35,,,,,,,F:\AGROCERRADO\Faz Talisma Correntina\INPUT\20260401\M3E\DJI_202604011322_001_m2,"-18.00",False,"+180.00",MPO_RGB,M3E,"1206",Daylight,"0.006","3956","75","0.0","100.6","0.000","0.0",2026:04:01 13:31:02,DJI_20260401133102_0035_V.JPG,"72.0",493ON344AB04YQ,"2.8","20260404","45.0","14.9265","0.80000",Alta,"14.2","8.9658","15371","51389",F:\AGROCERRADO\Faz Talisma Correntina\INPUT\20260401\M3E\DJI_202604011322_001_m2\DJI_20260401133102_0035_V.JPG,"18.0","0.0015","12.8472",,"0.0","+162.20","0.03428","+0.10","1.0","53.7","202604041206","0.01181","100.0",M3E,,"55",True,"0.0000000",,"0",1581F5FH82577002N061,"72.0",,"180","0.3086","-10.60","0.0","0.0","+985.991","0.0","+186.139",.JPG,"0.002","0.01133","0.0","0.006","0.000","0.0000000","11.9366","(600.9009, 450.2205)","50","13.99","99.993",,"2.97","9.6736","0.2","5280",11.09.08.24,"(0.24, 0.24, 2.8, 11.0)","12.29","2.97","-90.00","-4.6",,"1","14.9265","1",Unknown,"2","4.0",,
36,,,,,,,F:\AGROCERRADO\Faz Talisma Correntina\INPUT\20260401\M3E\DJI_202604011322_001_m2,"-18.00",False,"+180.00",MPO_RGB,M3E,"1207",Daylight,"0.012","3956","75","0.0","100.7","0.000","0.0",2026:04:01 13:31:05,DJI_20260401133105_0036_V.JPG,"72.0",493ON344AB04YQ,"2.8","20260404","0.0333","14.9265","1.20000",Alta,"14.2","8.9658","15371","51390",F:\AGROCERRADO\Faz Talisma Correntina\INPUT\20260401\M3E\DJI_202604011322_001_m2\DJI_20260401133105_0036_V.JPG,"18.0","0.004","12.8475",,"0.0","+162.10","0.03403","-0.20","1.0","53.7","202604041207","0.01166","100.0",M3E,,"55",True,"0.0000000",,"0",1581F5FH82577002N061,"72.0",,"180","0.3086","-10.70","0.0","0.0","+985.979","0.0","+186.138",.JPG,"0.002","0.01115","0.0","0.012","0.000","0.0000000","11.9366","(600.8936, 450.215)","50","14.0","99.9807",,"2.97","9.6735","0.1","5280",11.09.08.24,"(0.24, 0.24, 2.8, 11.0)","12.29","2.97","-90.00","-4.6",,"1","14.9265","1",Unknown,"2","3.0",,
37,,,,,,,F:\AGROCERRADO\Faz Talisma Correntina\INPUT\20260401\M3E\DJI_202604011322_001_m2,"-18.00",False,"+0.00",MPO_RGB,M3E,"1206",Daylight,"0.026","3956","75","0.0","100.2","0.000","0.0042",2026:04:01 13:31:08,DJI_20260401133108_0037_V.JPG,"72.0",493ON344AB04YQ,"2.8","20260404","59.9667","14.8007","1.40000",Alta,"14.1","8.9658","15371","51391",F:\AGROCERRADO\Faz Talisma Correntina\INPUT\20260401\M3E\DJI_202604011322_001_m2\DJI_20260401133108_0037_V.JPG,"18.0","0.0087","12.8477",,"0.0","-17.80","0.03427","+0.50","1.0","53.3","202604041206","0.01180","100.0",M3E,,"55",True,"0.0000000",,"0",1581F5FH82577002N061,"72.0",,"170","0.306","-10.30","0.0","0.0","+986.005","0.0","+186.162",.JPG,"0.002","0.01131","0.0","0.026","0.000","0.0000000","11.9366","(600.9095, 450.2269)","50","14.05","99.982",,"2.97","9.6737","0.2","5280",11.09.08.24,"(0.24, 0.24, 2.8, 11.0)","12.29","2.97","-89.90","-4.5",,"1","14.8007","1",Unknown,"2","3.0",,
38,,,,,,,F:\AGROCERRADO\Faz Talisma Correntina\INPUT\20260401\M3E\DJI_202604011322_001_m2,"-18.00",False,"+0.00",MPO_RGB,M3E,"1207",Daylight,"0.016","3956","75","0.0","100.2","0.000","0.0032",2026:04:01 13:31:11,DJI_20260401133111_0038_V.JPG,"72.0",493ON344AB04YQ,"2.8","20260404","0.0","14.896","0.80000",Alta,"14.2","8.9658","15371","51392",F:\AGROCERRADO\Faz Talisma Correntina\INPUT\20260401\M3E\DJI_202604011322_001_m2\DJI_20260401133111_0038_V.JPG,"18.0","0.0053","12.848",,"0.0","-17.80","0.03410","+1.00","1.0","53.6","202604041207","0.01178","100.0",M3E,,"55",True,"0.0000000",,"0",1581F5FH82577002N061,"72.0",,"180","0.308","-10.30","0.0","0.0","+985.989","0.0","+186.141",.JPG,"0.002","0.01126","0.0","0.016","0.000","0.0000000","11.9366","(600.8997, 450.2196)","50","14.03","99.992",,"2.97","9.6736","0.2","5280",11.09.08.24,"(0.24, 0.24, 2.8, 11.0)","12.29","2.97","-89.90","-4.5",,"1","14.896","1",Unknown,"2","3.0",,
39,,,,,,,F:\AGROCERRADO\Faz Talisma Correntina\INPUT\20260401\M3E\DJI_202604011322_001_m2,"-18.00",False,"+0.00",MPO_RGB,M3E,"1206",Daylight,"0.019","3956","75","0.0","100.4","0.000","0.0",2026:04:01 13:31:15,DJI_20260401133115_0039_V.JPG,"72.0",493ON344AB04YQ,"2.8","20260404","0.0","14.896","1.00000",Alta,"14.2","8.9658","15371","51393",F:\AGROCERRADO\Faz Talisma Correntina\INPUT\20260401\M3E\DJI_202604011322_001_m2\DJI_20260401133115_0039_V.JPG,"18.0","0.0048","12.8483",,"0.0","-17.80","0.03412","+0.60","1.0","53.6","202604041206","0.01174","100.0",M3E,,"55",True,"0.0000000",,"0",1581F5FH82577002N061,"72.0",,"170","0.308","-10.50","0.0","0.0","+985.970","0.0","+186.130",.JPG,"0.002","0.01130","0.0","0.019","0.000","0.0000000","11.9366","(600.8881, 450.2109)","50","14.09","99.9993",,"2.97","9.6734","0.2","5280",11.09.08.24,"(0.24, 0.24, 2.8, 11.0)","12.29","2.97","-89.90","-4.5",,"1","14.896","1",Unknown,"2","4.0",,
40,,,,,,,F:\AGROCERRADO\Faz Talisma Correntina\INPUT\20260401\M3E\DJI_202604011322_001_m2,"-18.00",False,"+180.00",MPO_RGB,M3E,"1208",Daylight,"0.019","3956","75","0.0","100.2","0.000","0.0",2026:04:01 13:31:18,DJI_20260401133118_0040_V.JPG,"72.0",493ON344AB04YQ,"2.8","20260404","60.0","14.896","1.40000",Alta,"14.2","8.9658","15371","51394",F:\AGROCERRADO\Faz Talisma Correntina\INPUT\20260401\M3E\DJI_202604011322_001_m2\DJI_20260401133118_0040_V.JPG,"18.0","0.0063","12.8485",,"0.0","+162.20","0.03444","+0.50","1.0","53.6","202604041208","0.01170","100.0",M3E,,"55",True,"0.0000000",,"0",1581F5FH82577002N061,"72.0",,"180","0.308","-10.20","0.0","0.0","+985.989","0.0","+186.146",.JPG,"0.002","0.01126","0.0","0.019","0.000","0.0000000","11.9366","(600.8997, 450.2196)","50","14.23","99.992",,"2.97","9.6736","0.2","5280",11.09.08.24,"(0.24, 0.24, 2.8, 11.0)","12.29","2.97","-90.00","-4.5",,"1","14.896","1",Unknown,"2","3.0",,
41,,,,,,,F:\AGROCERRADO\Faz Talisma Correntina\INPUT\20260401\M3E\DJI_202604011322_001_m2,"-18.00",False,"+180.00",MPO_RGB,M3E,"1207",Daylight,"0.001","3956","75","0.0","100.2","0.000","0.0022",2026:04:01 13:31:21,DJI_20260401133121_0041_V.JPG,"72.0",493ON344AB04YQ,"2.8","20260404","0.0","14.8314","1.60000",Alta,"14.1","8.9658","15371","51395",F:\AGROCERRADO\Faz Talisma Correntina\INPUT\20260401\M3E\DJI_202604011322_001_m2\DJI_20260401133121_0041_V.JPG,"18.0","0.0003","12.8488",,"0.0","+162.20","0.03433","+0.40","1.0","53.4","202604041207","0.01189","100.0",M3E,,"55",True,"0.0000000",,"0",1581F5FH82577002N061,"72.0",,"180","0.3066","-10.20","0.0","0.0","+985.990","0.0","+186.130",.JPG,"0.002","0.01133","0.0","0.001","0.000","0.0000000","11.9366","(600.9003, 450.22)","50","14.47","99.995",,"2.97","9.6736","0.2","5280",11.09.08.24,"(0.24, 0.24, 2.8, 11.0)","12.29","2.97","-90.00","-4.6",,"1","14.8314","1",Unknown,"2","3.0",,
42,,,,,,,F:\AGROCERRADO\Faz Talisma Correntina\INPUT\20260401\M3E\DJI_202604011322_001_m2,"-18.00",False,"+180.00",MPO_RGB,M3E,"1207",Daylight,"0.016","3956","75","0.0","100.0","0.000","0.001",2026:04:01 13:31:25,DJI_20260401133125_0042_V.JPG,"72.0",493ON344AB04YQ,"2.8","20260404","0.0","14.8007","0.80000",Alta,"14.1","8.9658","15371","51396",F:\AGROCERRADO\Faz Talisma Correntina\INPUT\20260401\M3E\DJI_202604011322_001_m2\DJI_20260401133125_0042_V.JPG,"18.0","0.004","12.849",,"0.0","+162.20","0.03420","+0.60","1.0","53.3","202604041207","0.01175","100.0",M3E,,"55",True,"0.0000000",,"0",1581F5FH82577002N061,"72.0",,"180","0.306","-10.00","0.0","0.0","+985.974","0.0","+186.137",.JPG,"0.002","0.01124","0.0","0.016","0.000","0.0000000","11.9366","(600.8906, 450.2127)","50","14.87","99.988",,"2.97","9.6734","0.2","5280",11.09.08.24,"(0.24, 0.24, 2.8, 11.0)","12.29","2.97","-90.00","-4.5",,"1","14.8007","1",Unknown,"2","4.0",,
43,,,,,,,F:\AGROCERRADO\Faz Talisma Correntina\INPUT\20260401\M3E\DJI_202604011322_001_m2,"-18.00",False,"+180.00",MPO_RGB,M3E,"1207",Daylight,"0.009","3956","75","0.0","99.9","0.000","0.0042",2026:04:01 13:31:28,DJI_20260401133128_0043_V.JPG,"72.0",493ON344AB04YQ,"2.8","20260404","0.0","14.9265","1.20000",Alta,"14.2","8.9658","15371","51397",F:\AGROCERRADO\Faz Talisma Correntina\INPUT\20260401\M3E\DJI_202604011322_001_m2\DJI_20260401133128_0043_V.JPG,"18.0","0.003","12.8493",,"0.0","+162.20","0.03431","+0.40","1.0","53.7","202604041207","0.01163","100.0",M3E,,"55",True,"0.0000000",,"0",1581F5FH82577002N061,"72.0",,"180","0.3086","-9.90","0.0","0.0","+985.983","0.0","+186.139",.JPG,"0.002","0.01114","0.0","0.009","0.000","0.0000000","11.9366","(600.8961, 450.2168)","50","15.14","99.9963",,"2.97","9.6735","0.2","5280",11.09.08.24,"(0.24, 0.24, 2.8, 11.0)","12.29","2.97","-90.00","-4.6",,"1","14.9265","1",Unknown,"2","3.0",,
44,,,,,,,F:\AGROCERRADO\Faz Talisma Correntina\INPUT\20260401\M3E\DJI_202604011322_001_m2,"-18.00",False,"+180.00",MPO_RGB,M3E,"1206",Daylight,"0.004","3956","75","0.0","99.9","0.000","0.0032",2026:04:01 13:31:31,DJI_20260401133131_0044_V.JPG,"72.0",493ON344AB04YQ,"2.8","20260404","0.0333","14.8314","1.40000",Alta,"14.1","8.9658","15371","51398",F:\AGROCERRADO\Faz Talisma Correntina\INPUT\20260401\M3E\DJI_202604011322_001_m2\DJI_20260401133131_0044_V.JPG,"18.0","0.0013","12.8495",,"0.0","+162.10","0.03452","+0.10","1.0","53.4","202604041206","0.01170","100.0",M3E,,"55",True,"0.0000000",,"0",1581F5FH82577002N061,"72.0",,"200","0.3066","-9.90","0.0","0.0","+985.979","0.0","+186.127",.JPG,"0.002","0.01121","0.0","0.004","0.000","0.0000000","11.9366","(600.8936, 450.215)","50","15.12","99.9883",,"2.97","9.6735","0.1","5280",11.09.08.24,"(0.24, 0.24, 2.8, 11.0)","12.29","2.97","-90.00","-4.6",,"1","14.8314","1",Unknown,"2","3.0",,
45,,,,,,,F:\AGROCERRADO\Faz Talisma Correntina\INPUT\20260401\M3E\DJI_202604011322_001_m2,"-18.00",False,"+180.00",MPO_RGB,M3E,"1207",Daylight,"0.013","3956","75","0.0","100.3","0.000","0.0032",2026:04:01 13:31:34,DJI_20260401133134_0045_V.JPG,"72.0",493ON344AB04YQ,"2.8","20260404","0.0333","14.9265","0.80000",Alta,"14.2","8.9658","15371","51399",F:\AGROCERRADO\Faz Talisma Correntina\INPUT\20260401\M3E\DJI_202604011322_001_m2\DJI_20260401133134_0045_V.JPG,"18.0","0.0043","12.8497",,"0.0","+162.20","0.03453","+0.40","1.0","53.7","202604041207","0.01171","100.0",M3E,,"55",True,"0.0000000",,"0",1581F5FH82577002N061,"72.0",,"200","0.3086","-10.30","0.0","0.0","+985.992","0.0","+186.136",.JPG,"0.002","0.01123","0.0","0.013","0.000","0.0000000","11.9366","(600.9016, 450.2209)","50","14.79","99.9987",,"2.97","9.6736","0.2","5280",11.09.08.24,"(0.24, 0.24, 2.8, 11.0)","12.29","2.97","-90.00","-4.6",,"1","14.9265","1",Unknown,"2","3.0",,
46,,,,,,,F:\AGROCERRADO\Faz Talisma Correntina\INPUT\20260401\M3E\DJI_202604011322_001_m2,"-18.00",False,"+180.00",MPO_RGB,M3E,"1205",Daylight,"0.009","3956","75","0.0","99.5","0.000","0.0032",2026:04:01 13:31:38,DJI_20260401133138_0046_V.JPG,"72.0",493ON344AB04YQ,"2.8","20260404","0.0","14.8314","1.00000",Alta,"14.1","8.9658","15371","51400",F:\AGROCERRADO\Faz Talisma Correntina\INPUT\20260401\M3E\DJI_202604011322_001_m2\DJI_20260401133138_0046_V.JPG,"18.0","0.0023","12.85",,"0.0","+162.20","0.03437","+1.20","1.0","53.4","202604041205","0.01159","100.0",M3E,,"55",True,"0.0000000",,"0",1581F5FH82577002N061,"72.0",,"210","0.3066","-9.50","0.0","0.0","+985.983","0.0","+186.142",.JPG,"0.002","0.01114","0.0","0.009","0.000","0.0000000","11.9366","(600.8961, 450.2168)","50","14.35","99.9877",,"2.97","9.6735","0.2","5280",11.09.08.24,"(0.24, 0.24, 2.8, 11.0)","12.29","2.97","-90.00","-4.6",,"1","14.8314","1",Unknown,"2","4.0",,
47,,,,,,,F:\AGROCERRADO\Faz Talisma Correntina\INPUT\20260401\M3E\DJI_202604011322_001_m2,"-18.10",False,"+0.00",MPO_RGB,M3E,"1207",Daylight,"0.012","3956","75","0.0","99.3","0.000","0.0032",2026:04:01 13:31:41,DJI_20260401133141_0047_V.JPG,"72.0",493ON344AB04YQ,"2.8","20260404","60.0","14.9265","1.40000",Alta,"14.2","8.9658","15371","51401",F:\AGROCERRADO\Faz Talisma Correntina\INPUT\20260401\M3E\DJI_202604011322_001_m2\DJI_20260401133141_0047_V.JPG,"18.1","0.004","12.8502",,"0.0","-17.80","0.03523","+1.00","1.0","53.7","202604041207","0.01160","100.0",M3E,,"55",True,"0.0000000",,"0",1581F5FH82577002N061,"72.0",,"200","0.3086","-9.40","0.0","0.0","+985.995","0.0","+186.152",.JPG,"0.002","0.01122","0.0","0.012","0.000","0.0000000","11.9366","(600.9034, 450.2223)","50","13.76","99.9683",,"2.97","9.6736","0.3","5280",11.09.08.24,"(0.24, 0.24, 2.8, 11.0)","12.29","2.97","-89.90","-4.6",,"1","14.9265","1",Unknown,"2","3.0",,
48,,,,,,,F:\AGROCERRADO\Faz Talisma Correntina\INPUT\20260401\M3E\DJI_202604011322_001_m2,"-18.00",False,"+0.00",MPO_RGB,M3E,"1206",Daylight,"0.006","3956","75","0.0","99.9","0.000","0.0",2026:04:01 13:31:44,DJI_20260401133144_0048_V.JPG,"72.0",493ON344AB04YQ,"2.8","20260404","0.0","14.9265","1.60000",Alta,"14.2","8.9658","15371","51402",F:\AGROCERRADO\Faz Talisma Correntina\INPUT\20260401\M3E\DJI_202604011322_001_m2\DJI_20260401133144_0048_V.JPG,"18.0","0.002","12.8505",,"0.0","-17.80","0.03535","+0.70","1.0","53.7","202604041206","0.01165","100.0",M3E,,"55",True,"0.0000000",,"0",1581F5FH82577002N061,"72.0",,"200","0.3086","-10.00","0.0","0.0","+985.989","0.0","+186.135",.JPG,"0.002","0.01125","0.0","0.006","0.000","0.0000000","11.9366","(600.8997, 450.2196)","50","13.47","99.9933",,"2.97","9.6736","0.2","5280",11.09.08.24,"(0.24, 0.24, 2.8, 11.0)","12.29","2.97","-89.90","-4.6",,"1","14.9265","1",Unknown,"2","3.0",,
49,,,,,,,F:\AGROCERRADO\Faz Talisma Correntina\INPUT\20260401\M3E\DJI_202604011322_001_m2,"-18.00",False,"+0.00",MPO_RGB,M3E,"1206",Daylight,"0.008","3956","75","0.0","100.0","0.000","0.0",2026:04:01 13:31:48,DJI_20260401133148_0049_V.JPG,"72.0",493ON344AB04YQ,"2.8","20260404","0.0","14.9265","1.00000",Alta,"14.2","8.9658","15371","51403",F:\AGROCERRADO\Faz Talisma Correntina\INPUT\20260401\M3E\DJI_202604011322_001_m2\DJI_20260401133148_0049_V.JPG,"18.0","0.002","12.8507",,"0.0","-17.80","0.03535","+0.70","1.0","53.7","202604041206","0.01174","100.0",M3E,,"55",True,"0.0000000",,"0",1581F5FH82577002N061,"72.0",,"190","0.3086","-10.10","0.0","0.0","+985.997","0.0","+186.150",.JPG,"0.002","0.01132","0.0","0.008","0.000","0.0000000","11.9366","(600.9046, 450.2232)","50","13.45","99.9947",,"2.97","9.6737","0.2","5280",11.09.08.24,"(0.24, 0.24, 2.8, 11.0)","12.29","2.97","-89.90","-4.6",,"1","14.9265","1",Unknown,"2","4.0",,
50,,,,,,,F:\AGROCERRADO\Faz Talisma Correntina\INPUT\20260401\M3E\DJI_202604011322_001_m2,"-18.00",False,"+180.00",MPO_RGB,M3E,"1207",Daylight,"0.022","3956","75","0.0","99.9","0.000","0.0",2026:04:01 13:31:51,DJI_20260401133151_0050_V.JPG,"72.0",493ON344AB04YQ,"2.8","20260404","60.0","14.9265","1.20000",Alta,"14.2","8.9658","15371","51404",F:\AGROCERRADO\Faz Talisma Correntina\INPUT\20260401\M3E\DJI_202604011322_001_m2\DJI_20260401133151_0050_V.JPG,"18.0","0.0073","12.851",,"0.0","+162.20","0.03468","+0.80","1.0","53.7","202604041207","0.01151","100.0",M3E,,"55",True,"0.0000000",,"0",1581F5FH82577002N061,"72.0",,"190","0.3086","-9.90","0.0","0.0","+985.975","0.0","+186.133",.JPG,"0.002","0.01116","0.0","0.022","0.000","0.0000000","11.9366","(600.8912, 450.2132)","50","13.31","99.9647",,"2.97","9.6734","0.2","5280",11.09.08.24,"(0.24, 0.24, 2.8, 11.0)","12.29","2.97","-90.00","-4.6",,"1","14.9265","1",Unknown,"2","3.0",,
51,,,,,,,F:\AGROCERRADO\Faz Talisma Correntina\INPUT\20260401\M3E\DJI_202604011322_001_m2,"-18.00",False,"+180.00",MPO_RGB,M3E,"1206",Daylight,"0.009","3956","75","0.0","99.9","0.000","0.0032",2026:04:01 13:31:54,DJI_20260401133154_0051_V.JPG,"72.0",493ON344AB04YQ,"2.8","20260404","0.0","14.8314","1.60000",Alta,"14.1","8.9658","15371","51405",F:\AGROCERRADO\Faz Talisma Correntina\INPUT\20260401\M3E\DJI_202604011322_001_m2\DJI_20260401133154_0051_V.JPG,"18.0","0.003","12.8513",,"0.0","+162.20","0.03444","+0.00","1.0","53.4","202604041206","0.01160","100.0",M3E,,"55",True,"0.0000000",,"0",1581F5FH82577002N061,"72.0",,"200","0.3066","-9.90","0.0","0.0","+985.984","0.0","+186.137",.JPG,"0.002","0.01115","0.0","0.009","0.000","0.0000000","11.9366","(600.8967, 450.2173)","50","13.43","99.9947",,"2.97","9.6735","0.2","5280",11.09.08.24,"(0.24, 0.24, 2.8, 11.0)","12.29","2.97","-90.00","-4.6",,"1","14.8314","1",Unknown,"2","3.0",,
52,,,,,,,F:\AGROCERRADO\Faz Talisma Correntina\INPUT\20260401\M3E\DJI_202604011322_001_m2,"-106.90",False,"+0.00",MPO_RGB,M3E,"1207",Daylight,"0.018","3956","45","0.0","102.3","0.000","0.3687",2026:04:01 13:31:59,DJI_20260401133159_0052_V.JPG,"72.0",493ON344AB04YQ,"2.8","20260404","18.32","6.8411","1.60000",Média,"-1.8","8.9658","15371","51406",F:\AGROCERRADO\Faz Talisma Correntina\INPUT\20260401\M3E\DJI_202604011322_001_m2\DJI_20260401133159_0052_V.JPG,"106.9","0.0036","12.8515",,"0.0","-106.20","0.03786","-5.40","1.0","24.6","202604041207","0.01172","100.0",M3E,,"25",True,"0.0000000",,"0",1581F5FH82577002N061,"72.0",,"220","0.1414","-12.40","0.0","0.0","+985.966","0.0","+186.144",.JPG,"0.002","0.01237","0.0","0.018","0.000","0.0000000","11.9366","(600.8857, 450.2091)","50","13.61","99.8413",,"2.97","9.6733","0.7","5280",11.09.08.24,"(0.24, 0.24, 2.8, 11.0)","12.29","2.97","-89.90","-6.6",,"1","6.8411","1",Unknown,"2","5.0",,
53,,,,,,,F:\AGROCERRADO\Faz Talisma Correntina\INPUT\20260401\M3E\DJI_202604011322_001_m2,"-109.40",False,"+180.00",MPO_RGB,M3E,"1207",Daylight,"0.128","3956","75","0.0","62.8","0.000","0.1612",2026:04:01 13:32:05,DJI_20260401133205_0053_V.JPG,"72.0",493ON344AB04YQ,"2.8","20260404","29.95","9.471","0.80000",Alta,"-3.5","8.9658","15371","51407",F:\AGROCERRADO\Faz Talisma Correntina\INPUT\20260401\M3E\DJI_202604011322_001_m2\DJI_20260401133205_0053_V.JPG,"109.4","0.0213","12.8518",,"0.0","+73.50","0.03383","-13.90","1.0","34.1","202604041207","0.01143","100.0",M3E,,"55",True,"0.0000000",,"0",1581F5FH82577002N061,"72.0",,"220","0.1958","+27.20","0.0","0.0","+986.094","0.1","+186.194",.JPG,"0.002","0.01142","0.0","0.128","0.000","0.0000000","11.9366","(600.9637, 450.2675)","50","13.6","99.8243",,"2.97","9.6746","2.9","5280",11.09.08.24,"(0.24, 0.24, 2.8, 11.0)","12.29","2.97","-90.00","-8.8",,"1","9.471","1",Unknown,"2","6.0",,
54,,,,,,,F:\AGROCERRADO\Faz Talisma Correntina\INPUT\20260401\M3E\DJI_202604011322_001_m2,"+162.10",False,"+0.00",MPO_RGB,M3E,"1207",Daylight,"0.146","3956","75","0.0","111.1","0.000","0.1211",2026:04:01 13:32:10,DJI_20260401133210_0054_V.JPG,"72.0",493ON344AB04YQ,"2.8","20260404","17.86","12.0806","1.60000",Alta,"-11.5","8.9658","15371","51408",F:\AGROCERRADO\Faz Talisma Correntina\INPUT\20260401\M3E\DJI_202604011322_001_m2\DJI_20260401133210_0054_V.JPG,"162.1","0.0292","12.852",,"0.0","+162.80","0.03377","-0.60","1.0","43.5","202604041207","0.01141","100.0",M3E,,"55",True,"0.0000000",,"0",1581F5FH82577002N061,"72.0",,"190","0.2498","-21.20","0.0","0.0","+985.948","0.0","+186.115",.JPG,"0.002","0.01158","0.0","0.146","0.000","0.0000000","11.9366","(600.8747, 450.2008)","50","13.39","99.9973",,"2.97","9.6732","0.7","5280",11.09.08.24,"(0.24, 0.24, 2.8, 11.0)","12.29","2.97","-89.90","3.7",,"1","12.0806","1",Unknown,"2","5.0",,
55,,,,,,,F:\AGROCERRADO\Faz Talisma Correntina\INPUT\20260401\M3E\DJI_202604011322_001_m2,"+161.90",False,"+0.00",MPO_RGB,M3E,"1206",Daylight,"0.062","3956","75","0.0","111.6","0.000","0.099",2026:04:01 13:32:14,DJI_20260401133214_0055_V.JPG,"72.0",493ON344AB04YQ,"2.8","20260404","0.0","14.7363","1.40000",Alta,"-14.0","8.9658","15371","51409",F:\AGROCERRADO\Faz Talisma Correntina\INPUT\20260401\M3E\DJI_202604011322_001_m2\DJI_20260401133214_0055_V.JPG,"161.9","0.0155","12.8523",,"0.0","+162.80","0.03348","-0.20","1.0","53.1","202604041206","0.01136","100.0",M3E,,"55",True,"0.0000000",,"0",1581F5FH82577002N061,"72.0",,"200","0.3047","-21.70","0.0","0.0","+985.886","0.0","+186.101",.JPG,"0.002","0.01152","0.0","0.062","0.000","0.0000000","11.9366","(600.837, 450.1725)","50","13.56","99.9867",,"2.97","9.6726","0.9","5280",11.09.08.24,"(0.24, 0.24, 2.8, 11.0)","12.29","2.97","-89.90","4.6",,"1","14.7363","1",Unknown,"2","4.0",,
56,,,,,,,F:\AGROCERRADO\Faz Talisma Correntina\INPUT\20260401\M3E\DJI_202604011322_001_m2,"+161.80",False,"+180.00",MPO_RGB,M3E,"1207",Daylight,"0.032","3956","75","0.0","109.7","0.000","0.0064",2026:04:01 13:32:17,DJI_20260401133217_0056_V.JPG,"72.0",493ON344AB04YQ,"2.8","20260404","60.0","14.9265","1.60000",Alta,"-14.2","8.9658","15371","51410",F:\AGROCERRADO\Faz Talisma Correntina\INPUT\20260401\M3E\DJI_202604011322_001_m2\DJI_20260401133217_0056_V.JPG,"161.8","0.0107","12.8525",,"0.0","-17.20","0.03353","-0.80","1.0","53.7","202604041207","0.01144","100.0",M3E,,"55",True,"0.0000000",,"0",1581F5FH82577002N061,"72.0",,"210","0.3086","-19.70","0.0","0.0","+985.918","0.0","+186.116",.JPG,"0.002","0.01159","0.0","0.032","0.000","0.0000000","11.9366","(600.8565, 450.1871)","50","13.65","99.9933",,"2.97","9.6729","1.0","5280",11.09.08.24,"(0.24, 0.24, 2.8, 11.0)","12.29","2.97","-90.00","4.6",,"1","14.9265","1",Unknown,"2","3.0",,
57,,,,,,,F:\AGROCERRADO\Faz Talisma Correntina\INPUT\20260401\M3E\DJI_202604011322_001_m2,"+161.90",False,"+0.00",MPO_RGB,M3E,"1205",Daylight,"0.004","3956","75","0.0","110.0","0.000","0.0032",2026:04:01 13:32:21,DJI_20260401133221_0057_V.JPG,"72.0",493ON344AB04YQ,"2.8","20260404","44.975","14.8314","1.00000",Alta,"-14.1","8.9658","15371","51411",F:\AGROCERRADO\Faz Talisma Correntina\INPUT\20260401\M3E\DJI_202604011322_001_m2\DJI_20260401133221_0057_V.JPG,"161.9","0.001","12.8527",,"0.0","+162.70","0.03353","-0.20","1.0","53.4","202604041205","0.01151","100.0",M3E,,"55",True,"0.0000000",,"0",1581F5FH82577002N061,"72.0",,"210","0.3067","-20.10","0.0","0.0","+985.914","0.0","+186.118",.JPG,"0.002","0.01157","0.0","0.004","0.000","0.0000000","11.9366","(600.854, 450.1853)","50","13.76","99.9983",,"2.97","9.6728","0.8","5280",11.09.08.24,"(0.24, 0.24, 2.8, 11.0)","12.29","2.97","-89.90","4.6",,"1","14.8314","1",Unknown,"2","4.0",,
58,,,,,,,F:\AGROCERRADO\Faz Talisma Correntina\INPUT\20260401\M3E\DJI_202604011322_001_m2,"+162.00",False,"+180.00",MPO_RGB,M3E,"1206",Daylight,"0.086","3956","75","0.0","109.7","0.000","0.0",2026:04:01 13:32:24,DJI_20260401133224_0058_V.JPG,"72.0",493ON344AB04YQ,"2.8","20260404","59.9333","14.8317","1.20000",Alta,"-14.1","8.9658","15371","51412",F:\AGROCERRADO\Faz Talisma Correntina\INPUT\20260401\M3E\DJI_202604011322_001_m2\DJI_20260401133224_0058_V.JPG,"162.0","0.0287","12.853",,"0.0","-17.10","0.03350","-0.30","1.0","53.4","202604041206","0.01134","100.0",M3E,,"55",True,"0.0000000",,"0",1581F5FH82577002N061,"72.0",,"210","0.3067","-19.70","0.0","0.0","+985.828","-0.1","+186.017",.JPG,"0.002","0.01146","0.0","0.086","0.000","0.0000000","11.9366","(600.8016, 450.1461)","50","13.86","99.9897",,"2.97","9.672","0.9","5280",11.09.08.24,"(0.24, 0.24, 2.8, 11.0)","12.29","2.97","-90.00","4.6",,"1","14.8317","1",Unknown,"2","3.0",,
59,,,,,,,F:\AGROCERRADO\Faz Talisma Correntina\INPUT\20260401\M3E\DJI_202604011322_001_m2,"+162.10",False,"+180.00",MPO_RGB,M3E,"1207",Daylight,"0.187","3956","75","0.0","109.7","0.000","0.0",2026:04:01 13:32:27,DJI_20260401133227_0059_V.JPG,"72.0",493ON344AB04YQ,"2.8","20260404","0.0333","14.8314","1.60000",Alta,"-14.1","8.9658","15371","51413",F:\AGROCERRADO\Faz Talisma Correntina\INPUT\20260401\M3E\DJI_202604011322_001_m2\DJI_20260401133227_0059_V.JPG,"162.1","0.0623","12.8532",,"0.0","-17.00","0.03339","+0.10","1.0","53.4","202604041207","0.01140","100.0",M3E,,"55",True,"0.0000000",,"0",1581F5FH82577002N061,"72.0",,"210","0.3066","-19.70","0.0","0.0","+986.015","0.0","+186.176",.JPG,"0.002","0.01147","0.0","0.187","0.000","0.0000000","11.9366","(600.9156, 450.2314)","50","14.46","99.9987",,"2.97","9.6738","0.9","5280",11.09.08.24,"(0.24, 0.24, 2.8, 11.0)","12.29","2.97","-90.00","4.6",,"1","14.8314","1",Unknown,"2","3.0",,
60,,,,,,,F:\AGROCERRADO\Faz Talisma Correntina\INPUT\20260401\M3E\DJI_202604011322_001_m2,"+162.00",False,"+180.00",MPO_RGB,M3E,"1207",Daylight,"0.039","3956","75","0.0","109.4","0.000","0.0",2026:04:01 13:32:31,DJI_20260401133231_0060_V.JPG,"72.0",493ON344AB04YQ,"2.8","20260404","0.025","14.8314","0.80000",Alta,"-14.1","8.9658","15371","51414",F:\AGROCERRADO\Faz Talisma Correntina\INPUT\20260401\M3E\DJI_202604011322_001_m2\DJI_20260401133231_0060_V.JPG,"162.0","0.0097","12.8535",,"0.0","-17.10","0.03337","+0.00","1.0","53.4","202604041207","0.01141","100.0",M3E,,"55",True,"0.0000000",,"0",1581F5FH82577002N061,"72.0",,"190","0.3066","-19.40","0.0","0.0","+985.976","0.0","+186.127",.JPG,"0.002","0.01154","0.0","0.039","0.000","0.0000000","11.9366","(600.8918, 450.2136)","50","14.67","99.998",,"2.97","9.6734","0.9","5280",11.09.08.24,"(0.24, 0.24, 2.8, 11.0)","12.29","2.97","-90.00","4.6",,"1","14.8314","1",Unknown,"2","4.0",,
61,,,,,,,F:\AGROCERRADO\Faz Talisma Correntina\INPUT\20260401\M3E\DJI_202604011322_001_m2,"+162.10",False,"+0.00",MPO_RGB,M3E,"1206",Daylight,"0.029","3956","75","0.0","109.2","0.000","0.0",2026:04:01 13:32:34,DJI_20260401133234_0061_V.JPG,"72.0",493ON344AB04YQ,"2.8","20260404","59.9667","14.8314","1.20000",Alta,"-14.1","8.9658","15371","51415",F:\AGROCERRADO\Faz Talisma Correntina\INPUT\20260401\M3E\DJI_202604011322_001_m2\DJI_20260401133234_0061_V.JPG,"162.1","0.0097","12.8537",,"0.0","+162.80","0.03313","-1.10","1.0","53.4","202604041206","0.01137","100.0",M3E,,"55",True,"0.0000000",,"0",1581F5FH82577002N061,"72.0",,"190","0.3067","-19.30","0.0","0.0","+985.947","0.0","+186.119",.JPG,"0.002","0.01134","0.0","0.029","0.000","0.0000000","11.9366","(600.8741, 450.2004)","50","14.96","99.984",,"2.97","9.6732","0.7","5280",11.09.08.24,"(0.24, 0.24, 2.8, 11.0)","12.29","2.97","-89.90","4.6",,"1","14.8314","1",Unknown,"2","3.0",,
62,,,,,,,F:\AGROCERRADO\Faz Talisma Correntina\INPUT\20260401\M3E\DJI_202604011322_001_m2,"+162.00",False,"+180.00",MPO_RGB,M3E,"1207",Daylight,"0.04","3956","75","0.0","109.4","0.000","0.0011",2026:04:01 13:32:37,DJI_20260401133237_0062_V.JPG,"72.0",493ON344AB04YQ,"2.8","20260404","60.0","14.8627","1.40000",Alta,"-14.1","8.9658","15371","51416",F:\AGROCERRADO\Faz Talisma Correntina\INPUT\20260401\M3E\DJI_202604011322_001_m2\DJI_20260401133237_0062_V.JPG,"162.0","0.0133","12.854",,"0.0","-17.20","0.03328","-0.60","1.0","53.5","202604041207","0.01144","100.0",M3E,,"55",True,"0.0000000",,"0",1581F5FH82577002N061,"72.0",,"170","0.3073","-19.40","0.0","0.0","+985.987","0.0","+186.150",.JPG,"0.002","0.01147","0.0","0.04","0.000","0.0000000","11.9366","(600.8985, 450.2187)","50","14.94","99.9883",,"2.97","9.6736","0.8","5280",11.09.08.24,"(0.24, 0.24, 2.8, 11.0)","12.29","2.97","-90.00","4.7",,"1","14.8627","1",Unknown,"2","3.0",,
