File,Path,FormatMod,SizeMB,GPSDatum,Model,Firmware,DPIWidth,DPIHeight,ShutterSp,DateTime,ApertureV,MaxApertV,LightSour,FocalLeng,WidthPX,HeightPX,ExpTime,FNumber,ExpProg,ISOSpeed,ExpMode,Lens,ZoomRatio,GpsStatus,Ytype,GpsLat,GPSLong,AbsY,RelativeY,GimbRoll,GimbYaw,GimbPitch,DroneRoll,DroneYaw,DronePitc,XSpeed,YSpeed,ZSpeed,RtkFlag,RtkStdLon,RtkStdLat,RtkStdHgt,RtkDifAge,Dewarp,UTCTime,ShotCount,FocusDist,CameraID,DronModel,DroneID,CaptureID,ImgQualit,Segments,SensTemp,LRFStatus,LRFDist,LRFLong,LRFLati,LRFY,LrfAbsAlt,WhiteBlc,SensorFPS,REI,LensPosit,LensTemp,FileType,DateTmFul,DateOnly,TimeOnly,FlightNum,FlightNam,Folder1,Folder2,GimOffset,3DSpeed,TimePrv,GeoDstP,Dist3DP,AvgVelB,LinVelI,DirDispl,IncAngle,EstCover,PredOver,RTKPrec,IdealOvl,AbrChgF,GimAngV,OrtoPot,ShutPct,GsdCmPx,HeatIdx,SpdKmH,YawErr,BlurRisk,EV,LSrcClass,LightCons,VertStb,TrajSmt,SpdVar,RtkStab,CapEff,PQI,StripID,PhotoNum,Latitude,Longitude,Altitude,DateName,MrkFile,MrkPath,MrkFolder
DJI_20250819150448_0001_V.JPG,G:/teste\DJI_202508191502_001_AreaTesteLines15ms_DewarpingDesabilitado\DJI_20250819150448_0001_V.JPG,MPO_RGB,6.63,WGS-84,M4E,10.04.00.16,"72.0","72.0","8.96578",2025:08:19 15:04:48,"2.97","2.97",1,"12.29",5280,3956,"0.002","2.8",2,130,0,"(24.0, 24.0, 2.8, 11.0)","1.0",RTK,RtkAlt,-10.218645291,-48.359186531,379.965,"+167.548","+180.00","-178.50","-90.00","-1.30","+1.60","-4.40","0.0","0.0","0.1","50","0.00275","0.00307","0.00793","2.00000","0",2025-08-19T18:05:08.908639,"1119",,493OM934AB01SN,M4E,1581F7FVC255700DJ63S,,,,"44.0",Normal,"168.055","-48.3591866","-10.2186475","-0.475","212.000","4164",5819/100,130,"23","42.300000",single,"202508191504","20250819","1504",,,DJI_202508191502_001_AreaTesteLines15ms_DewarpingDesabilitado,teste,0.1,0.1,0,0,0,0,0.1,0,94.4,"[102.4192, 76.7368]",0,Alta,0,0,0,50,0.2797,1.9398,43.15,0.4,0,0.0103,11.9366,Daylight,Inconsistent,0,0,0,0,0,70,1,,,,,,,,
DJI_20250819150453_0003_V.JPG,G:/teste\DJI_202508191502_001_AreaTesteLines15ms_DewarpingDesabilitado\DJI_20250819150453_0003_V.JPG,MPO_RGB,6.21,WGS-84,M4E,10.04.00.16,"72.0","72.0","9.32193",2025:08:19 15:04:53,"2.97","2.97",1,"12.29",5280,3956,"0.0015625","2.8",2,130,0,"(24.0, 24.0, 2.8, 11.0)","1.0",RTK,RtkAlt,-10.21828494,-48.359188785,379.843,"+167.503","+180.00","+179.20","-90.00","-1.00","-0.90","-19.50","14.5","-0.2","0.0","50","0.00279","0.00312","0.00793","1.80000","0",2025-08-19T18:05:13.606776,"1120",,493OM934AB01SN,M4E,1581F7FVC255700DJ63S,,,,"44.0",Normal,"167.885","-48.3591885","-10.2182975","-0.375","212.100","4289",5819/100,130,"23","42.200000",single,"202508191504","20250819","1504",,,DJI_202508191502_001_AreaTesteLines15ms_DewarpingDesabilitado,teste,0.1,14.5014,5,38.9188,38.919,7.7838,14.5014,179.6939,109.5,"[102.3156, 76.6592]",61.962,Alta,1,1,0.46,65,0.28,1.9378,43.1,52.2,179.4061,1.1693,12.2928,Daylight,Inconsistent,0.122,0,0.9863,99.997,0.3804,75,1,,,,,,,,
DJI_20250819150456_0004_V.JPG,G:/teste\DJI_202508191502_001_AreaTesteLines15ms_DewarpingDesabilitado\DJI_20250819150456_0004_V.JPG,MPO_RGB,6.13,WGS-84,M4E,10.04.00.16,"72.0","72.0","9.32193",2025:08:19 15:04:56,"2.97","2.97",1,"12.29",5280,3956,"0.0015625","2.8",2,130,0,"(24.0, 24.0, 2.8, 11.0)","1.0",RTK,RtkAlt,-10.217929267,-48.359185861,379.838,"+167.489","+180.00","-179.90","-90.00","-5.10","+0.70","-16.30","15.1","0.2","-0.1","50","0.00279","0.00303","0.00795","1.40000","0",2025-08-19T18:05:16.238507,"1121",,493OM934AB01SN,M4E,1581F7FVC255700DJ63S,,,,"44.0",Normal,"168.207","-48.3591860","-10.2179467","-0.775","211.700","4333",5819/100,130,"23","42.200000",single,"202508191504","20250819","1504",,,DJI_202508191502_001_AreaTesteLines15ms_DewarpingDesabilitado,teste,0.6,15.1017,3,39.0081,39.0081,13.0027,15.1017,180.4018,106.3,"[102.5118, 76.8062]",61.9477,Alta,1,0,0.3,65,0.2802,1.9415,43.1,54.4,179.7018,1.2154,12.2928,Daylight,Inconsistent,0.005,0.7079,0.0203,99.9977,0.3805,75,1,,,,,,,,
DJI_20250819150458_0005_V.JPG,G:/teste\DJI_202508191502_001_AreaTesteLines15ms_DewarpingDesabilitado\DJI_20250819150458_0005_V.JPG,MPO_RGB,6.09,WGS-84,M4E,10.04.00.16,"72.0","72.0","9.32193",2025:08:19 15:04:58,"2.97","2.97",1,"12.29",5280,3956,"0.0015625","2.8",2,130,0,"(24.0, 24.0, 2.8, 11.0)","1.0",RTK,RtkAlt,-10.217646738,-48.359186025,379.867,"+167.511","+180.00","-179.90","-90.00","-1.30","+0.10","-15.70","15.1","0.0","0.0","50","0.00279","0.00301","0.00795","1.40000","0",2025-08-19T18:05:18.316151,"1122",,493OM934AB01SN,M4E,1581F7FVC255700DJ63S,,,,"44.0",Normal,"168.131","-48.3591860","-10.2176598","-0.675","211.800","4388",5819/100,130,"23","42.200000",single,"202508191504","20250819","1504",,,DJI_202508191502_001_AreaTesteLines15ms_DewarpingDesabilitado,teste,0,15.1,2,31.9018,31.9018,15.9509,15.1,180,105.7,"[102.4655, 76.7715]",68.8658,Alta,1,0,0,65,0.2805,1.9406,43.1,54.4,179.9,1.2158,12.2928,Daylight,Inconsistent,0.029,0.4018,0.0001,99.9993,0.3113,75,1,,,,,,,,
DJI_20250819150500_0006_V.JPG,G:/teste\DJI_202508191502_001_AreaTesteLines15ms_DewarpingDesabilitado\DJI_20250819150500_0006_V.JPG,MPO_RGB,6.07,WGS-84,M4E,10.04.00.16,"72.0","72.0","9.32193",2025:08:19 15:05:00,"2.97","2.97",1,"12.29",5280,3956,"0.0015625","2.8",2,130,0,"(24.0, 24.0, 2.8, 11.0)","1.0",RTK,RtkAlt,-10.217328766,-48.359186253,379.859,"+167.495","+180.00","+180.00","-90.00","-2.60","-0.10","-15.00","15.0","0.1","0.0","50","0.00278","0.00301","0.00794","3.80000","0",2025-08-19T18:05:20.657362,"1123",,493OM934AB01SN,M4E,1581F7FVC255700DJ63S,,,,"43.0",Normal,"167.343","-48.3591862","-10.2173486","0.125","212.600","4371",5819/100,130,"23","42.200000",single,"202508191505","20250819","1505",,,DJI_202508191502_001_AreaTesteLines15ms_DewarpingDesabilitado,teste,0.1,15.0003,2,34.6039,34.6039,17.3019,15.0003,179.9638,105,"[101.9853, 76.4117]",66.0697,Alta,1,0,0.05,50,0.2807,1.9315,42.6,54,179.9362,1.2134,12.2928,Daylight,Inconsistent,0.008,0.0362,0.0033,99.9993,0.3393,60,1,,,,,,,,
DJI_20250819150503_0007_V.JPG,G:/teste\DJI_202508191502_001_AreaTesteLines15ms_DewarpingDesabilitado\DJI_20250819150503_0007_V.JPG,MPO_RGB,6.34,WGS-84,M4E,10.04.00.16,"72.0","72.0","8.96578",2025:08:19 15:05:03,"2.97","2.97",1,"12.29",5280,3956,"0.002","2.8",2,120,0,"(24.0, 24.0, 2.8, 11.0)","1.0",RTK,RtkAlt,-10.21700458,-48.359186401,379.878,"+167.526","+180.00","+180.00","-90.00","-3.20","+0.10","-16.70","14.9","0.0","0.0","50","0.00277","0.00302","0.00790","1.20000","0",2025-08-19T18:05:23.047458,"1124",,493OM934AB01SN,M4E,1581F7FVC255700DJ63S,,,,"43.0",Normal,"167.007","-48.3591863","-10.2170096","0.525","213.000","4342",5819/100,120,"23","42.200000",single,"202508191505","20250819","1505",,,DJI_202508191502_001_AreaTesteLines15ms_DewarpingDesabilitado,teste,0.1,14.9,3,37.6951,37.6951,12.565,14.9,179.9834,106.7,"[101.7805, 76.2583]",62.9643,Alta,1,0,0,65,0.281,1.9277,42.6,53.6,179.8834,1.5459,11.9366,Daylight,Inconsistent,0.019,0.0196,0.0034,99.9987,0.3704,75,1,,,,,,,,
DJI_20250819150505_0008_V.JPG,G:/teste\DJI_202508191502_001_AreaTesteLines15ms_DewarpingDesabilitado\DJI_20250819150505_0008_V.JPG,MPO_RGB,6.69,WGS-84,M4E,10.04.00.16,"72.0","72.0","8.96578",2025:08:19 15:05:05,"2.97","2.97",1,"12.29",5280,3956,"0.002","2.8",2,130,0,"(24.0, 24.0, 2.8, 11.0)","1.0",RTK,RtkAlt,-10.216701501,-48.359185564,380.005,"+167.507","+180.00","+180.00","-90.00","-3.90","-0.40","+15.70","9.2","-0.1","0.0","50","0.00275","0.00313","0.00798","0.80000","0",2025-08-19T18:05:25.621880,"1125",,493OM934AB01SN,M4E,1581F7FVC255700DJ63S,,,,"43.0",Normal,"166.219","-48.3591855","-10.2167117","1.325","213.800","4363",5819/100,130,"23","42.200000",single,"202508191505","20250819","1505",,,DJI_202508191502_001_AreaTesteLines15ms_DewarpingDesabilitado,teste,0.4,9.2005,2,33.1251,33.1253,16.5627,9.2005,180.1514,74.3,"[101.3003, 75.8985]",67.3001,Alta,1,0,0,65,0.2812,1.9186,42.6,33.1,179.4486,0.9591,11.9366,Daylight,Inconsistent,0.127,0.168,0.2365,99.9943,0.327,75,1,,,,,,,,
DJI_20250819150509_0009_V.JPG,G:/teste\DJI_202508191502_001_AreaTesteLines15ms_DewarpingDesabilitado\DJI_20250819150509_0009_V.JPG,MPO_RGB,6.72,WGS-84,M4E,10.04.00.16,"72.0","72.0","8.96578",2025:08:19 15:05:09,"2.97","2.97",1,"12.29",5280,3956,"0.002","2.8",2,120,0,"(24.0, 24.0, 2.8, 11.0)","1.0",RTK,RtkAlt,-10.216704355,-48.359222201,379.922,"+167.603","+180.00","+35.80","-90.00","-2.70","-152.40","-27.00","-8.7","-3.0","0.0","50","0.00276","0.00303","0.00787","5.00000","0",2025-08-19T18:05:29.846034,"1126",,493OM934AB01SN,M4E,1581F7FVC255700DJ63S,,,,"43.0",Normal,"166.500","-48.3592181","-10.2166938","1.125","213.600","4221",5819/100,120,"23","42.200000",single,"202508191505","20250819","1505",,,DJI_202508191502_001_AreaTesteLines15ms_DewarpingDesabilitado,teste,8.2,9.2027,4,4.0852,4.086,1.0215,9.2027,119.1583,117,"[101.4715, 76.0268]",95.974,Alta,1,0,36.05,60,0.2815,1.9218,42.6,33.1,88.4417,0.9577,11.9366,Daylight,Inconsistent,0.083,60.9931,0.0001,99.9933,0.0403,70,1,,,,,,,,
DJI_20250819150512_0010_V.JPG,G:/teste\DJI_202508191502_001_AreaTesteLines15ms_DewarpingDesabilitado\DJI_20250819150512_0010_V.JPG,MPO_RGB,6.45,WGS-84,M4E,10.04.00.16,"72.0","72.0","8.96578",2025:08:19 15:05:12,"2.97","2.97",1,"12.29",5280,3956,"0.002","2.8",2,120,0,"(24.0, 24.0, 2.8, 11.0)","1.0",RTK,RtkAlt,-10.217006726,-48.359324697,379.879,"+167.556","+180.00","+18.90","-90.00","+0.30","-161.90","-21.30","-14.2","-4.5","0.1","50","0.00273","0.00303","0.00772","1.80000","0",2025-08-19T18:05:32.583956,"1127",,493OM934AB01SN,M4E,1581F7FVC255700DJ63S,,,,"43.0",Normal,"166.875","-48.3593180","-10.2169853","0.725","213.200","4230",5819/100,120,"23","42.200000",single,"202508191505","20250819","1505",,,DJI_202508191502_001_AreaTesteLines15ms_DewarpingDesabilitado,teste,0.8,14.8963,3,34.2073,34.2073,11.4024,14.8963,18.638,111.3,"[101.7001, 76.198]",66.3645,Alta,1,0,5.6333,65,0.2818,1.9261,42.6,53.6,179.462,1.5468,11.9366,Daylight,Inconsistent,0.043,100.5203,0.2363,99.994,0.3364,75,1,,,,,,,,
DJI_20250819150514_0011_V.JPG,G:/teste\DJI_202508191502_001_AreaTesteLines15ms_DewarpingDesabilitado\DJI_20250819150514_0011_V.JPG,MPO_RGB,6.27,WGS-84,M4E,10.04.00.16,"72.0","72.0","8.96578",2025:08:19 15:05:14,"2.97","2.97",1,"12.29",5280,3956,"0.002","2.8",2,120,0,"(24.0, 24.0, 2.8, 11.0)","1.0",RTK,RtkAlt,-10.217315508,-48.359418853,379.856,"+167.516","+180.00","+17.00","-90.00","+1.60","-163.20","-17.30","-14.4","-4.4","0.0","50","0.00275","0.00300","0.00786","2.00000","0",2025-08-19T18:05:34.957163,"1128",,493OM934AB01SN,M4E,1581F7FVC255700DJ63S,,,,"43.0",Normal,"167.437","-48.3594173","-10.2173101","0.125","212.600","4260",5819/100,120,"23","42.200000",single,"202508191505","20250819","1505",,,DJI_202508191502_001_AreaTesteLines15ms_DewarpingDesabilitado,teste,0.2,15.0572,2,37.7155,37.7155,18.8577,15.0572,16.7454,107.3,"[102.0426, 76.4546]",63.0395,Alta,1,0,0.95,50,0.282,1.9326,42.6,54.2,179.9454,1.5582,11.9366,Daylight,Inconsistent,0.023,1.8926,0.0054,99.9957,0.3696,60,1,,,,,,,,
DJI_20250819150517_0012_V.JPG,G:/teste\DJI_202508191502_001_AreaTesteLines15ms_DewarpingDesabilitado\DJI_20250819150517_0012_V.JPG,MPO_RGB,6.18,WGS-84,M4E,10.04.00.16,"72.0","72.0","9.32193",2025:08:19 15:05:17,"2.97","2.97",1,"12.29",5280,3956,"0.0015625","2.8",2,130,0,"(24.0, 24.0, 2.8, 11.0)","1.0",RTK,RtkAlt,-10.217623145,-48.359512912,379.872,"+167.526","+180.00","+16.40","-90.00","+0.40","-163.30","-17.80","-14.4","-4.3","-0.1","50","0.00276","0.00311","0.00785","2.40000","0",2025-08-19T18:05:37.324854,"1129",,493OM934AB01SN,M4E,1581F7FVC255700DJ63S,,,,"43.0",Normal,"168.263","-48.3595086","-10.2176082","-0.775","211.700","4308",5819/100,130,"23","42.200000",single,"202508191505","20250819","1505",,,DJI_202508191502_001_AreaTesteLines15ms_DewarpingDesabilitado,teste,0.3,15.0286,3,34.6202,34.6202,11.5401,15.0286,16.7737,107.8,"[102.546, 76.8318]",66.2393,Alta,1,0,0.2,50,0.2823,1.9422,42.6,54.1,179.9263,1.2091,12.2928,Daylight,Inconsistent,0.016,0.0283,0.001,99.9963,0.3376,60,1,,,,,,,,
DJI_20250819150519_0013_V.JPG,G:/teste\DJI_202508191502_001_AreaTesteLines15ms_DewarpingDesabilitado\DJI_20250819150519_0013_V.JPG,MPO_RGB,6.26,WGS-84,M4E,10.04.00.16,"72.0","72.0","8.96578",2025:08:19 15:05:19,"2.97","2.97",1,"12.29",5280,3956,"0.002","2.8",2,120,0,"(24.0, 24.0, 2.8, 11.0)","1.0",RTK,RtkAlt,-10.217928746,-48.359605243,379.839,"+167.499","+180.00","+16.30","-90.00","+2.60","-163.40","-18.30","-14.4","-4.3","0.0","50","0.00275","0.00301","0.00786","1.80000","0",2025-08-19T18:05:39.677010,"1130",,493OM934AB01SN,M4E,1581F7FVC255700DJ63S,,,,"43.0",Normal,"167.999","-48.3596028","-10.2179209","-0.475","212.000","4300",5819/100,120,"23","42.200000",single,"202508191505","20250819","1505",,,DJI_202508191502_001_AreaTesteLines15ms_DewarpingDesabilitado,teste,0.3,15.0283,2,36.2665,36.2666,18.1333,15.0283,16.5135,108.3,"[102.3851, 76.7112]",64.5783,Alta,1,0,0.05,65,0.2825,1.9391,42.6,54.1,179.9135,1.55,11.9366,Daylight,Inconsistent,0.033,0.2602,0,99.9967,0.3542,75,1,,,,,,,,
DJI_20250819150522_0014_V.JPG,G:/teste\DJI_202508191502_001_AreaTesteLines15ms_DewarpingDesabilitado\DJI_20250819150522_0014_V.JPG,MPO_RGB,6.27,WGS-84,M4E,10.04.00.16,"72.0","72.0","9.32193",2025:08:19 15:05:22,"2.97","2.97",1,"12.29",5280,3956,"0.0015625","2.8",2,130,0,"(24.0, 24.0, 2.8, 11.0)","1.0",RTK,RtkAlt,-10.218233791,-48.35969696,379.872,"+167.525","+180.00","+16.30","-90.00","+2.30","-163.50","-15.80","-14.4","-4.3","0.0","50","0.00276","0.00300","0.00775","2.20000","0",2025-08-19T18:05:42.021243,"1131",,493OM934AB01SN,M4E,1581F7FVC255700DJ63S,,,,"43.0",Normal,"168.506","-48.3596929","-10.2182201","-0.975","211.500","4267",5819/100,130,"23","42.200000",single,"202508191505","20250819","1505",,,DJI_202508191502_001_AreaTesteLines15ms_DewarpingDesabilitado,teste,0.2,15.0283,3,34.6998,34.6998,11.5666,15.0283,16.5077,105.8,"[102.6941, 76.9427]",66.2105,Alta,1,0,0,50,0.2828,1.945,42.6,54.1,179.9923,1.2073,12.2928,Daylight,Inconsistent,0.033,0.0058,0,99.9963,0.3379,60,1,,,,,,,,
DJI_20250819150524_0015_V.JPG,G:/teste\DJI_202508191502_001_AreaTesteLines15ms_DewarpingDesabilitado\DJI_20250819150524_0015_V.JPG,MPO_RGB,6.48,WGS-84,M4E,10.04.00.16,"72.0","72.0","8.96578",2025:08:19 15:05:24,"2.97","2.97",2,"12.29",5280,3956,"0.002","2.8",2,130,0,"(24.0, 24.0, 2.8, 11.0)","1.0",RTK,RtkAlt,-10.21855211,-48.359792493,379.994,"+167.494","+180.00","+16.10","-90.00","-4.30","-164.50","+13.80","-8.5","-2.6","0.0","50","0.00272","0.00299","0.00772","2.00000","0",2025-08-19T18:05:44.857984,"1132",,493OM934AB01SN,M4E,1581F7FVC255700DJ63S,,,,"43.0",Normal,"167.077","-48.3597890","-10.2185402","0.425","212.900","4172",5819/100,130,"23","42.200000",single,"202508191505","20250819","1505",,,DJI_202508191502_001_AreaTesteLines15ms_DewarpingDesabilitado,teste,0.6,8.8888,2,37.1146,37.1148,18.5574,8.8888,16.4601,76.2,"[101.8232, 76.2902]",63.55,Alta,1,0,0.1,50,0.283,1.9285,42.6,32,179.0399,0.9218,11.9366,Fluorescent,Consistent,0.122,0.0476,0.2567,99.9973,0.3645,60,1,,,,,,,,
DJI_20250819150528_0016_V.JPG,G:/teste\DJI_202508191502_001_AreaTesteLines15ms_DewarpingDesabilitado\DJI_20250819150528_0016_V.JPG,MPO_RGB,6.52,WGS-84,M4E,10.04.00.16,"72.0","72.0","8.96578",2025:08:19 15:05:28,"2.97","2.97",2,"12.29",5280,3956,"0.002","2.8",2,130,0,"(24.0, 24.0, 2.8, 11.0)","1.0",RTK,RtkAlt,-10.218553546,-48.359829984,379.892,"+167.562","+180.00","+137.90","-90.00","+14.20","-33.80","-24.60","8.2","-0.4","0.0","50","0.00278","0.00302","0.00772","5.60000","0",2025-08-19T18:05:48.517203,"1133",,493OM934AB01SN,M4E,1581F7FVC255700DJ63S,,,,"42.0",Normal,"165.327","-48.3598284","-10.2185608","2.225","214.700","4206",5819/100,130,"23","42.200000",single,"202508191505","20250819","1505",,,DJI_202508191502_001_AreaTesteLines15ms_DewarpingDesabilitado,teste,8.3,8.2098,4,4.8823,4.8834,1.2208,8.2098,62.0197,114.6,"[100.7567, 75.4912]",95.1544,Alta,1,0,30.45,60,0.2833,1.9083,42.1,29.6,95.8197,0.8604,11.9366,Fluorescent,Consistent,0.102,45.5596,0.0397,99.997,0.0485,70,1,,,,,,,,
DJI_20250819150531_0017_V.JPG,G:/teste\DJI_202508191502_001_AreaTesteLines15ms_DewarpingDesabilitado\DJI_20250819150531_0017_V.JPG,MPO_RGB,6.23,WGS-84,M4E,10.04.00.16,"72.0","72.0","9.32193",2025:08:19 15:05:31,"2.97","2.97",1,"12.29",5280,3956,"0.0015625","2.8",2,130,0,"(24.0, 24.0, 2.8, 11.0)","1.0",RTK,RtkAlt,-10.218224101,-48.359834416,379.876,"+167.545","+180.00","+179.10","-90.00","-2.70","-0.90","-19.60","14.9","-0.2","0.1","50","0.00269","0.00302","0.00770","3.60000","0",2025-08-19T18:05:51.441243,"1134",,493OM934AB01SN,M4E,1581F7FVC255700DJ63S,,,,"42.0",Normal,"168.318","-48.3598341","-10.2182414","-0.775","211.700","4263",5819/100,130,"23","42.200000",single,"202508191505","20250819","1505",,,DJI_202508191502_001_AreaTesteLines15ms_DewarpingDesabilitado,teste,0,14.9017,3,35.5211,35.5211,11.8404,14.9017,178.9938,109.6,"[102.5795, 76.8569]",65.3721,Alta,1,0,13.7333,50,0.2835,1.9428,42.1,53.6,179.8938,1.1985,12.2928,Daylight,Inconsistent,0.016,116.9741,0.2896,99.9963,0.3463,60,1,,,,,,,,
DJI_20250819150533_0018_V.JPG,G:/teste\DJI_202508191502_001_AreaTesteLines15ms_DewarpingDesabilitado\DJI_20250819150533_0018_V.JPG,MPO_RGB,6.17,WGS-84,M4E,10.04.00.16,"72.0","72.0","8.96578",2025:08:19 15:05:33,"2.97","2.97",1,"12.29",5280,3956,"0.002","2.8",2,120,0,"(24.0, 24.0, 2.8, 11.0)","1.0",RTK,RtkAlt,-10.217897917,-48.35983716,379.856,"+167.501","+180.00","+179.70","-90.00","-2.80","-0.50","-15.60","15.1","-0.1","-0.1","50","0.00276","0.00302","0.00776","1.00000","0",2025-08-19T18:05:53.845485,"1135",,493OM934AB01SN,M4E,1581F7FVC255700DJ63S,,,,"42.0",Normal,"168.131","-48.3598370","-10.2179162","-0.675","211.800","4311",5819/100,120,"23","42.200000",single,"202508191505","20250819","1505",,,DJI_202508191502_001_AreaTesteLines15ms_DewarpingDesabilitado,teste,0.2,15.1007,2,36.162,36.162,18.081,15.1007,179.4972,105.6,"[102.4655, 76.7715]",64.7081,Alta,1,0,0.3,65,0.2838,1.9406,42.1,54.4,179.9972,1.5563,11.9366,Daylight,Inconsistent,0.02,0.5034,0.0066,99.9957,0.3529,75,1,,,,,,,,
DJI_20250819150536_0019_V.JPG,G:/teste\DJI_202508191502_001_AreaTesteLines15ms_DewarpingDesabilitado\DJI_20250819150536_0019_V.JPG,MPO_RGB,6.28,WGS-84,M4E,10.04.00.16,"72.0","72.0","8.96578",2025:08:19 15:05:36,"2.97","2.97",1,"12.29",5280,3956,"0.002","2.8",2,120,0,"(24.0, 24.0, 2.8, 11.0)","1.0",RTK,RtkAlt,-10.217576446,-48.359837589,379.885,"+167.534","+180.00","-179.70","-90.00","-1.60","+0.00","-15.80","15.0","0.0","0.0","50","0.00280","0.00362","0.00803","1.40000","0",2025-08-19T18:05:56.213137,"1136",,493OM934AB01SN,M4E,1581F7FVC255700DJ63S,,,,"42.0",Normal,"168.506","-48.3598375","-10.2175910","-0.975","211.500","4291",5819/100,120,"23","42.100000",single,"202508191505","20250819","1505",,,DJI_202508191502_001_AreaTesteLines15ms_DewarpingDesabilitado,teste,0.3,15,3,36.1606,36.1606,12.0535,15,179.9133,105.8,"[102.6941, 76.9427]",64.788,Alta,1,0,0.2,65,0.284,1.945,42.05,54,179.9133,1.5424,11.9366,Daylight,Inconsistent,0.029,0.4161,0.0033,99.9697,0.3521,75,1,,,,,,,,
DJI_20250819150538_0020_V.JPG,G:/teste\DJI_202508191502_001_AreaTesteLines15ms_DewarpingDesabilitado\DJI_20250819150538_0020_V.JPG,MPO_RGB,6.44,WGS-84,M4E,10.04.00.16,"72.0","72.0","8.96578",2025:08:19 15:05:38,"2.97","2.97",1,"12.29",5280,3956,"0.002","2.8",2,130,0,"(24.0, 24.0, 2.8, 11.0)","1.0",RTK,RtkAlt,-10.217259921,-48.359837364,379.874,"+167.516","+180.00","-179.50","-90.00","-1.90","+0.00","-14.90","15.1","0.0","-0.1","50","0.00274","0.00312","0.00773","2.60000","0",2025-08-19T18:05:58.544088,"1137",,493OM934AB01SN,M4E,1581F7FVC255700DJ63S,,,,"42.0",Normal,"166.348","-48.3598373","-10.2172643","1.125","213.600","4230",5819/100,130,"23","42.100000",single,"202508191505","20250819","1505",,,DJI_202508191502_001_AreaTesteLines15ms_DewarpingDesabilitado,teste,0.5,15.1003,2,36.3274,36.3274,18.1637,15.1003,180.0345,104.9,"[101.3789, 75.9574]",64.1667,Alta,1,0,0.1,50,0.2843,1.9201,42.05,54.4,179.9655,1.5729,11.9366,Daylight,Inconsistent,0.011,0.1212,0.0033,99.9713,0.3583,60,1,,,,,,,,
DJI_20250819150540_0021_V.JPG,G:/teste\DJI_202508191502_001_AreaTesteLines15ms_DewarpingDesabilitado\DJI_20250819150540_0021_V.JPG,MPO_RGB,6.81,WGS-84,M4E,10.04.00.16,"72.0","72.0","8.96578",2025:08:19 15:05:40,"2.97","2.97",2,"12.29",5280,3956,"0.002","2.8",2,150,0,"(24.0, 24.0, 2.8, 11.0)","1.0",RTK,RtkAlt,-10.216939034,-48.359837676,379.833,"+167.493","+180.00","-179.60","-90.00","-0.50","+0.00","-16.70","15.1","0.0","0.1","50","0.00280","0.00319","0.00776","3.00000","0",2025-08-19T18:06:00.913913,"1138",,493OM934AB01SN,M4E,1581F7FVC255700DJ63S,,,,"42.0",Normal,"166.199","-48.3598376","-10.2169515","1.325","213.800","4126",5819/100,150,"23","42.100000",single,"202508191505","20250819","1505",,,DJI_202508191502_001_AreaTesteLines15ms_DewarpingDesabilitado,teste,0.4,15.1003,2,34.7818,34.7818,17.3909,15.1003,179.9459,106.7,"[101.2881, 75.8893]",65.6605,Alta,1,0,0.05,50,0.2845,1.9183,42.05,54.4,179.9459,1.5743,11.9366,Fluorescent,Consistent,0.041,0.0886,0,99.9947,0.3434,60,1,,,,,,,,
DJI_20250819150543_0022_V.JPG,G:/teste\DJI_202508191502_001_AreaTesteLines15ms_DewarpingDesabilitado\DJI_20250819150543_0022_V.JPG,MPO_RGB,7.17,WGS-84,M4E,10.04.00.16,"72.0","72.0","8.96578",2025:08:19 15:05:43,"2.97","2.97",2,"12.29",5280,3956,"0.002","2.8",2,160,0,"(24.0, 24.0, 2.8, 11.0)","1.0",RTK,RtkAlt,-10.216621601,-48.359837184,379.85,"+167.512","+180.00","-179.60","-90.00","-2.90","+0.10","-18.30","15.0","0.0","0.0","50","0.00272","0.00305","0.00767","2.40000","0",2025-08-19T18:06:03.257063,"1139",,493OM934AB01SN,M4E,1581F7FVC255700DJ63S,,,,"42.0",Normal,"165.730","-48.3598371","-10.2166413","1.825","214.300","4059",5819/100,160,"23","42.100000",single,"202508191505","20250819","1505",,,DJI_202508191502_001_AreaTesteLines15ms_DewarpingDesabilitado,teste,0.3,15,3,34.4927,34.4927,11.4976,15,180.0909,108.3,"[101.0023, 75.6752]",65.8496,Alta,1,0,0,50,0.2848,1.9129,42.05,54,179.9909,1.5683,11.9366,Fluorescent,Consistent,0.017,0.145,0.0033,99.9897,0.3415,60,1,,,,,,,,
DJI_20250819150545_0023_V.JPG,G:/teste\DJI_202508191502_001_AreaTesteLines15ms_DewarpingDesabilitado\DJI_20250819150545_0023_V.JPG,MPO_RGB,7.26,WGS-84,M4E,10.04.00.16,"72.0","72.0","8.96578",2025:08:19 15:05:45,"2.97","2.97",2,"12.29",5280,3956,"0.002","2.8",2,160,0,"(24.0, 24.0, 2.8, 11.0)","1.0",RTK,RtkAlt,-10.216304285,-48.359837242,379.841,"+167.491","+180.00","-179.70","-90.00","-2.30","+0.00","-17.00","15.0","0.0","-0.1","50","0.00281","0.00330","0.00774","2.80000","0",2025-08-19T18:06:05.594843,"1140",,493OM934AB01SN,M4E,1581F7FVC255700DJ63S,,,,"42.0",Normal,"165.824","-48.3598372","-10.2163277","1.625","214.100","4103",5819/100,160,"23","42.100000",single,"202508191505","20250819","1505",,,DJI_202508191502_001_AreaTesteLines15ms_DewarpingDesabilitado,teste,0.3,15.0003,2,34.8707,34.8707,17.4354,15.0003,179.982,107,"[101.0595, 75.7181]",65.4949,Alta,1,0,0.05,50,0.285,1.914,42.05,54,179.982,1.5674,11.9366,Fluorescent,Consistent,0.009,0.1089,0,99.9863,0.3451,60,1,,,,,,,,
DJI_20250819150547_0024_V.JPG,G:/teste\DJI_202508191502_001_AreaTesteLines15ms_DewarpingDesabilitado\DJI_20250819150547_0024_V.JPG,MPO_RGB,7.29,WGS-84,M4E,10.04.00.16,"72.0","72.0","8.96578",2025:08:19 15:05:47,"2.97","2.97",2,"12.29",5280,3956,"0.002","2.8",2,160,0,"(24.0, 24.0, 2.8, 11.0)","1.0",RTK,RtkAlt,-10.215980028,-48.359837296,379.821,"+167.476","+180.00","-179.80","-90.00","-2.10","+0.00","-18.70","15.0","0.0","-0.1","50","0.00283","0.00321","0.00784","2.00000","0",2025-08-19T18:06:07.989283,"1141",,493OM934AB01SN,M4E,1581F7FVC255700DJ63S,,,,"42.0",Normal,"166.087","-48.3598373","-10.2159907","1.425","213.900","4122",5819/100,160,"23","42.100000",single,"202508191505","20250819","1505",,,DJI_202508191502_001_AreaTesteLines15ms_DewarpingDesabilitado,teste,0.2,15.0003,2,37.4727,37.4727,18.7363,15.0003,179.9833,108.7,"[101.2198, 75.8382]",62.9789,Alta,1,0,0.05,50,0.2853,1.917,42.05,54,179.9833,1.5649,11.9366,Fluorescent,Consistent,0.02,0.0013,0,99.999,0.3702,60,1,,,,,,,,
DJI_20250819150550_0025_V.JPG,G:/teste\DJI_202508191502_001_AreaTesteLines15ms_DewarpingDesabilitado\DJI_20250819150550_0025_V.JPG,MPO_RGB,7.34,WGS-84,M4E,10.04.00.16,"72.0","72.0","8.96578",2025:08:19 15:05:50,"2.97","2.97",2,"12.29",5280,3956,"0.002","2.8",2,160,0,"(24.0, 24.0, 2.8, 11.0)","1.0",RTK,RtkAlt,-10.215658471,-48.359836522,379.894,"+167.537","+180.00","-179.80","-90.00","-3.70","+0.10","-15.20","15.1","0.0","0.0","50","0.00277","0.00327","0.00768","2.40000","0",2025-08-19T18:06:10.354292,"1142",,493OM934AB01SN,M4E,1581F7FVC255700DJ63S,,,,"42.0",Normal,"165.485","-48.3598365","-10.2156644","2.025","214.500","4131",5819/100,160,"23","42.100000",single,"202508191505","20250819","1505",,,DJI_202508191502_001_AreaTesteLines15ms_DewarpingDesabilitado,teste,0.1,15.1,3,36.283,36.2831,12.0944,15.1,180.1382,105.2,"[100.8529, 75.5633]",64.0238,Alta,1,0,0,50,0.2855,1.9101,42.05,54.4,179.9618,1.5811,11.9366,Fluorescent,Consistent,0.073,0.1549,0.0033,99.9947,0.3598,60,1,,,,,,,,
DJI_20250819150552_0026_V.JPG,G:/teste\DJI_202508191502_001_AreaTesteLines15ms_DewarpingDesabilitado\DJI_20250819150552_0026_V.JPG,MPO_RGB,7.31,WGS-84,M4E,10.04.00.16,"72.0","72.0","8.96578",2025:08:19 15:05:52,"2.97","2.97",2,"12.29",5280,3956,"0.002","2.8",2,160,0,"(24.0, 24.0, 2.8, 11.0)","1.0",RTK,RtkAlt,-10.215343014,-48.359836724,379.881,"+167.523","+180.00","-179.90","-90.00","-2.80","+0.00","-14.90","15.1","0.0","0.0","50","0.00282","0.00323","0.00783","1.80000","0",2025-08-19T18:06:12.680992,"1143",,493OM934AB01SN,M4E,1581F7FVC255700DJ63S,,,,"42.0",Normal,"163.714","-48.3598367","-10.2153511","3.825","216.300","4143",5819/100,160,"23","42.100000",single,"202508191505","20250819","1505",,,DJI_202508191502_001_AreaTesteLines15ms_DewarpingDesabilitado,teste,0.1,15.1,2,34.8374,34.8374,17.4187,15.1,179.964,104.9,"[99.7736, 74.7546]",65.0835,Alta,1,0,0.05,65,0.2858,1.8897,42.05,54.4,179.964,1.5982,11.9366,Fluorescent,Consistent,0.013,0.1742,0,99.9947,0.3492,75,1,,,,,,,,
DJI_20250819150555_0027_V.JPG,G:/teste\DJI_202508191502_001_AreaTesteLines15ms_DewarpingDesabilitado\DJI_20250819150555_0027_V.JPG,MPO_RGB,7.13,WGS-84,M4E,10.04.00.16,"72.0","72.0","8.96578",2025:08:19 15:05:55,"2.97","2.97",2,"12.29",5280,3956,"0.002","2.8",2,150,0,"(24.0, 24.0, 2.8, 11.0)","1.0",RTK,RtkAlt,-10.215022108,-48.359837304,379.884,"+167.527","+180.00","-179.90","-90.00","-2.30","-0.10","-15.40","14.9","0.0","0.0","50","0.00275","0.00309","0.00767","1.20000","0",2025-08-19T18:06:15.047491,"1144",,493OM934AB01SN,M4E,1581F7FVC255700DJ63S,,,,"42.0",Normal,"165.935","-48.3598372","-10.2150406","1.625","214.100","4139",5819/100,150,"23","42.100000",single,"202508191505","20250819","1505",,,DJI_202508191502_001_AreaTesteLines15ms_DewarpingDesabilitado,teste,0.2,14.9,3,34.5261,34.5261,11.5087,14.9,179.9092,105.4,"[101.1272, 75.7688]",65.8587,Alta,1,0,0,65,0.286,1.9153,42.05,53.6,179.9908,1.5559,11.9366,Fluorescent,Consistent,0.003,0.0548,0.0067,99.9877,0.3414,75,1,,,,,,,,
DJI_20250819150557_0028_V.JPG,G:/teste\DJI_202508191502_001_AreaTesteLines15ms_DewarpingDesabilitado\DJI_20250819150557_0028_V.JPG,MPO_RGB,6.97,WGS-84,M4E,10.04.00.16,"72.0","72.0","8.96578",2025:08:19 15:05:57,"2.97","2.97",2,"12.29",5280,3956,"0.002","2.8",2,150,0,"(24.0, 24.0, 2.8, 11.0)","1.0",RTK,RtkAlt,-10.214705255,-48.359836986,379.894,"+167.544","+180.00","+180.00","-90.00","-3.90","+0.10","-15.50","15.0","0.0","0.0","50","0.00272","0.00310","0.00768","1.40000","0",2025-08-19T18:06:17.384910,"1145",,493OM934AB01SN,M4E,1581F7FVC255700DJ63S,,,,"42.0",Normal,"165.183","-48.3598369","-10.2147145","2.325","214.800","4113",5819/100,150,"23","42.100000",single,"202508191505","20250819","1505",,,DJI_202508191502_001_AreaTesteLines15ms_DewarpingDesabilitado,teste,0.1,15,2,36.2607,36.2607,18.1303,15,180.0519,105.5,"[100.6689, 75.4254]",63.9802,Alta,1,0,0.05,65,0.2863,1.9066,42.05,54,179.9519,1.5735,11.9366,Fluorescent,Consistent,0.01,0.1427,0.0033,99.9997,0.3602,75,1,,,,,,,,
DJI_20250819150559_0029_V.JPG,G:/teste\DJI_202508191502_001_AreaTesteLines15ms_DewarpingDesabilitado\DJI_20250819150559_0029_V.JPG,MPO_RGB,6.76,WGS-84,M4E,10.04.00.16,"72.0","72.0","8.96578",2025:08:19 15:05:59,"2.97","2.97",2,"12.29",5280,3956,"0.002","2.8",2,140,0,"(24.0, 24.0, 2.8, 11.0)","1.0",RTK,RtkAlt,-10.214386841,-48.359837551,379.843,"+167.490","+180.00","+180.00","-90.00","-3.80","+0.00","-13.90","15.0","0.1","0.0","50","0.00273","0.00306","0.00763","0.80000","0",2025-08-19T18:06:19.733404,"1146",,493OM934AB01SN,M4E,1581F7FVC255700DJ63S,,,,"42.0",Normal,"166.351","-48.3598375","-10.2144027","1.125","213.600","4163",5819/100,140,"23","42.100000",single,"202508191505","20250819","1505",,,DJI_202508191502_001_AreaTesteLines15ms_DewarpingDesabilitado,teste,0,15.0003,2,34.6706,34.6707,17.3353,15.0003,179.8915,103.9,"[101.3807, 75.9587]",65.8016,Alta,1,0,0,65,0.2865,1.9201,42.05,54,179.8915,1.5625,11.9366,Fluorescent,Consistent,0.051,0.1604,0,99.9973,0.342,75,1,,,,,,,,
DJI_20250819150602_0030_V.JPG,G:/teste\DJI_202508191502_001_AreaTesteLines15ms_DewarpingDesabilitado\DJI_20250819150602_0030_V.JPG,MPO_RGB,6.58,WGS-84,M4E,10.04.00.16,"72.0","72.0","8.96578",2025:08:19 15:06:02,"2.97","2.97",1,"12.29",5280,3956,"0.002","2.8",2,130,0,"(24.0, 24.0, 2.8, 11.0)","1.0",RTK,RtkAlt,-10.214064012,-48.359837597,379.886,"+167.528","+180.00","+179.90","-90.00","-0.10","-0.20","-14.00","14.8","-0.1","0.1","50","0.00275","0.00304","0.00768","1.20000","0",2025-08-19T18:06:22.115559,"1147",,493OM934AB01SN,M4E,1581F7FVC255700DJ63S,,,,"42.0",Normal,"166.313","-48.3598375","-10.2140774","1.225","213.700","4371",5819/100,130,"23","42.100000",single,"202508191506","20250819","1506",,,DJI_202508191502_001_AreaTesteLines15ms_DewarpingDesabilitado,teste,0.1,14.8007,3,36.1717,36.1717,12.0572,14.8007,180,104,"[101.3576, 75.9414]",64.3128,Alta,1,0,0.0333,65,0.2868,1.9197,42.05,53.3,179.8,1.542,11.9366,Daylight,Inconsistent,0.043,0.1085,0.0067,99.9983,0.3569,75,1,,,,,,,,
DJI_20250819150604_0031_V.JPG,G:/teste\DJI_202508191502_001_AreaTesteLines15ms_DewarpingDesabilitado\DJI_20250819150604_0031_V.JPG,MPO_RGB,6.5,WGS-84,M4E,10.04.00.16,"72.0","72.0","9.32193",2025:08:19 15:06:04,"2.97","2.97",1,"12.29",5280,3956,"0.0015625","2.8",2,130,0,"(24.0, 24.0, 2.8, 11.0)","1.0",RTK,RtkAlt,-10.21374201,-48.359837513,379.857,"+167.518","+180.00","+180.00","-90.00","+0.30","-0.10","-17.80","15.0","0.0","0.0","50","0.00280","0.00308","0.00764","1.60000","0",2025-08-19T18:06:24.492874,"1148",,493OM934AB01SN,M4E,1581F7FVC255700DJ63S,,,,"42.0",Normal,"162.712","-48.3598375","-10.2137516","4.825","217.300","4482",5819/100,130,"23","42.100000",single,"202508191506","20250819","1506",,,DJI_202508191502_001_AreaTesteLines15ms_DewarpingDesabilitado,teste,0.1,15,2,36.2273,36.2273,18.1137,15,180,107.8,"[99.163, 74.2971]",63.4669,Alta,1,0,0.05,65,0.287,1.8781,42.05,54,179.9,1.2479,12.2928,Daylight,Inconsistent,0.029,0,0.0067,99.9983,0.3653,75,1,,,,,,,,
DJI_20250819150606_0032_V.JPG,G:/teste\DJI_202508191502_001_AreaTesteLines15ms_DewarpingDesabilitado\DJI_20250819150606_0032_V.JPG,MPO_RGB,6.48,WGS-84,M4E,10.04.00.16,"72.0","72.0","9.32193",2025:08:19 15:06:06,"2.97","2.97",1,"12.29",5280,3956,"0.0015625","2.8",2,130,0,"(24.0, 24.0, 2.8, 11.0)","1.0",RTK,RtkAlt,-10.213427497,-48.359837026,379.842,"+167.493","+180.00","+180.00","-90.00","-0.90","-0.10","-15.70","15.1","0.0","0.0","50","0.00275","0.00304","0.00760","3.00000","0",2025-08-19T18:06:26.812809,"1149",,493OM934AB01SN,M4E,1581F7FVC255700DJ63S,,,,"42.0",Normal,"166.313","-48.3598369","-10.2134413","1.225","213.700","4614",5819/100,130,"23","42.100000",single,"202508191506","20250819","1506",,,DJI_202508191502_001_AreaTesteLines15ms_DewarpingDesabilitado,teste,0.1,15.1,2,34.5038,34.5039,17.2519,15.1,180.109,105.7,"[101.3576, 75.9414]",65.9583,Alta,1,0,0,50,0.2873,1.9197,42.05,54.4,179.791,1.2291,12.2928,Daylight,Inconsistent,0.015,0.109,0.0033,99.9957,0.3404,60,1,,,,,,,,
DJI_20250819150609_0033_V.JPG,G:/teste\DJI_202508191502_001_AreaTesteLines15ms_DewarpingDesabilitado\DJI_20250819150609_0033_V.JPG,MPO_RGB,6.38,WGS-84,M4E,10.04.00.16,"72.0","72.0","9.32193",2025:08:19 15:06:09,"2.97","2.97",1,"12.29",5280,3956,"0.0015625","2.8",2,130,0,"(24.0, 24.0, 2.8, 11.0)","1.0",RTK,RtkAlt,-10.213121804,-48.359837417,380.016,"+167.521","+180.00","+180.00","-90.00","-8.40","-1.50","+17.70","8.1","-0.2","0.1","50","0.00274","0.00303","0.00759","5.60000","0",2025-08-19T18:06:29.555399,"1150",,493OM934AB01SN,M4E,1581F7FVC255700DJ63S,,,,"42.0",Normal,"165.994","-48.3598373","-10.2131260","1.525","214.000","4735",5819/100,130,"23","42.100000",single,"202508191506","20250819","1506",,,DJI_202508191502_001_AreaTesteLines15ms_DewarpingDesabilitado,teste,1.5,8.1031,3,35.0598,35.0602,11.6867,8.1031,179.9285,72.3,"[101.1631, 75.7957]",65.3433,Alta,1,0,0,50,0.2875,1.916,42.05,29.2,178.5715,0.6608,12.2928,Daylight,Inconsistent,0.174,0.1805,0.3016,99.999,0.3466,60,1,,,,,,,,
DJI_20250819150613_0034_V.JPG,G:/teste\DJI_202508191502_001_AreaTesteLines15ms_DewarpingDesabilitado\DJI_20250819150613_0034_V.JPG,MPO_RGB,6.55,WGS-84,M4E,10.04.00.16,"72.0","72.0","9.32193",2025:08:19 15:06:13,"2.97","2.97",1,"12.29",5280,3956,"0.0015625","2.8",2,120,0,"(24.0, 24.0, 2.8, 11.0)","1.0",RTK,RtkAlt,-10.213157721,-48.359853327,379.889,"+167.561","+180.00","+49.00","-90.00","-18.70","-138.20","-23.90","-9.1","-1.3","0.1","50","0.00302","0.00335","0.00974","1.60000","0",2025-08-19T18:06:33.405778,"1151",,493OM934AB01SN,M4E,1581F7FVC255700DJ63S,,,,"42.0",Normal,"165.348","-48.3598509","-10.2131497","2.225","214.700","4651",5819/100,120,"23","42.000000",single,"202508191506","20250819","1506",,,DJI_202508191502_001_AreaTesteLines15ms_DewarpingDesabilitado,teste,7.2,9.1929,4,3.0265,3.0292,0.7573,9.1929,29.4555,113.9,"[100.7694, 75.5007]",96.9966,Alta,1,0,32.75,75,0.2878,1.9085,42,33.1,167.6555,0.7526,12.2928,Daylight,Inconsistent,0.127,150.473,0.063,99.9083,0.03,85,2,,,,,,,,
DJI_20250819150616_0035_V.JPG,G:/teste\DJI_202508191502_001_AreaTesteLines15ms_DewarpingDesabilitado\DJI_20250819150616_0035_V.JPG,MPO_RGB,6.54,WGS-84,M4E,10.04.00.16,"72.0","72.0","9.32193",2025:08:19 15:06:16,"2.97","2.97",1,"12.29",5280,3956,"0.0015625","2.8",2,130,0,"(24.0, 24.0, 2.8, 11.0)","1.0",RTK,RtkAlt,-10.213490764,-48.359892311,379.829,"+167.486","+180.00","+6.60","-90.00","+1.90","-173.50","-17.80","-14.8","-1.6","0.0","50","0.00279","0.00315","0.00787","2.40000","0",2025-08-19T18:06:36.211227,"1152",,493OM934AB01SN,M4E,1581F7FVC255700DJ63S,,,,"42.0",Normal,"166.538","-48.3598909","-10.2134781","0.925","213.400","4598",5819/100,130,"23","42.000000",single,"202508191506","20250819","1506",,,DJI_202508191502_001_AreaTesteLines15ms_DewarpingDesabilitado,teste,0.1,14.8862,3,36.7778,36.7779,12.2593,14.8862,6.8356,107.8,"[101.4947, 76.0441]",63.7638,Alta,1,0,14.1333,50,0.288,1.9222,42,53.6,179.6644,1.21,12.2928,Daylight,Inconsistent,0.06,22.6199,0.2364,99.9233,0.3624,60,2,,,,,,,,
DJI_20250819150618_0036_V.JPG,G:/teste\DJI_202508191502_001_AreaTesteLines15ms_DewarpingDesabilitado\DJI_20250819150618_0036_V.JPG,MPO_RGB,6.56,WGS-84,M4E,10.04.00.16,"72.0","72.0","9.32193",2025:08:19 15:06:18,"2.97","2.97",1,"12.29",5280,3956,"0.0015625","2.8",2,130,0,"(24.0, 24.0, 2.8, 11.0)","1.0",RTK,RtkAlt,-10.213813738,-48.359931442,379.866,"+167.506","+180.00","+6.70","-90.00","-1.30","-173.00","-15.80","-14.9","-1.8","-0.1","50","0.00270","0.00304","0.00768","1.80000","0",2025-08-19T18:06:38.608167,"1153",,493OM934AB01SN,M4E,1581F7FVC255700DJ63S,,,,"42.0",Normal,"166.407","-48.3599284","-10.2137879","1.125","213.600","4471",5819/100,130,"23","42.000000",single,"202508191506","20250819","1506",,,DJI_202508191502_001_AreaTesteLines15ms_DewarpingDesabilitado,teste,0.3,15.0087,2,34.6918,34.6918,17.3459,15.0087,6.7935,105.8,"[101.4148, 75.9843]",65.7922,Alta,1,0,0.05,65,0.2883,1.9207,42,54,179.7935,1.2209,12.2928,Daylight,Inconsistent,0.037,0.0421,0.0041,99.987,0.3421,75,2,,,,,,,,
DJI_20250819150620_0037_V.JPG,G:/teste\DJI_202508191502_001_AreaTesteLines15ms_DewarpingDesabilitado\DJI_20250819150620_0037_V.JPG,MPO_RGB,6.7,WGS-84,M4E,10.04.00.16,"72.0","72.0","8.96578",2025:08:19 15:06:20,"2.97","2.97",1,"12.29",5280,3956,"0.002","2.8",2,130,0,"(24.0, 24.0, 2.8, 11.0)","1.0",RTK,RtkAlt,-10.214124125,-48.359966037,379.906,"+167.544","+180.00","+6.50","-90.00","+2.50","-173.80","-15.80","-14.9","-1.6","0.0","50","0.00281","0.00311","0.00775","1.00000","0",2025-08-19T18:06:40.909042,"1154",,493OM934AB01SN,M4E,1581F7FVC255700DJ63S,,,,"42.0",Normal,"164.072","-48.3599648","-10.2141122","3.425","215.900","4356",5819/100,130,"23","42.000000",single,"202508191506","20250819","1506",,,DJI_202508191502_001_AreaTesteLines15ms_DewarpingDesabilitado,teste,0.3,14.9857,2,36.2799,36.2799,18.1399,14.9857,6.3035,105.8,"[99.9918, 74.9181]",63.7171,Alta,1,0,0.1,65,0.2885,1.8938,42,53.9,179.8965,1.5826,11.9366,Daylight,Inconsistent,0.04,0.49,0.0008,99.9917,0.3628,75,2,,,,,,,,
DJI_20250819150623_0038_V.JPG,G:/teste\DJI_202508191502_001_AreaTesteLines15ms_DewarpingDesabilitado\DJI_20250819150623_0038_V.JPG,MPO_RGB,6.85,WGS-84,M4E,10.04.00.16,"72.0","72.0","8.96578",2025:08:19 15:06:23,"2.97","2.97",2,"12.29",5280,3956,"0.002","2.8",2,150,0,"(24.0, 24.0, 2.8, 11.0)","1.0",RTK,RtkAlt,-10.214440808,-48.360001733,379.864,"+167.516","+180.00","+6.40","-90.00","+1.70","-173.70","-17.20","-14.8","-1.7","0.0","50","0.00270","0.00302","0.00760","1.40000","0",2025-08-19T18:06:43.259572,"1155",,493OM934AB01SN,M4E,1581F7FVC255700DJ63S,,,,"42.0",Normal,"166.614","-48.3600013","-10.2144356","0.925","213.400","4164",5819/100,150,"23","42.000000",single,"202508191506","20250819","1506",,,DJI_202508191502_001_AreaTesteLines15ms_DewarpingDesabilitado,teste,0.1,14.8973,3,36.1816,36.1816,12.0605,14.8973,6.3381,107.2,"[101.541, 76.0788]",64.3675,Alta,1,0,0.0333,65,0.2888,1.9231,42,53.6,179.9619,1.5493,11.9366,Fluorescent,Consistent,0.042,0.0346,0.003,99.9883,0.3563,75,2,,,,,,,,
DJI_20250819150625_0039_V.JPG,G:/teste\DJI_202508191502_001_AreaTesteLines15ms_DewarpingDesabilitado\DJI_20250819150625_0039_V.JPG,MPO_RGB,7.14,WGS-84,M4E,10.04.00.16,"72.0","72.0","8.96578",2025:08:19 15:06:25,"2.97","2.97",2,"12.29",5280,3956,"0.002","2.8",2,150,0,"(24.0, 24.0, 2.8, 11.0)","1.0",RTK,RtkAlt,-10.214762788,-48.360038135,379.873,"+167.527","+180.00","+6.40","-90.00","+2.60","-173.60","-16.90","-14.9","-1.7","0.0","50","0.00279","0.00311","0.00764","1.80000","0",2025-08-19T18:06:45.646463,"1156",,493OM934AB01SN,M4E,1581F7FVC255700DJ63S,,,,"42.0",Normal,"165.599","-48.3600361","-10.2147444","1.925","214.400","4093",5819/100,150,"23","42.000000",single,"202508191506","20250819","1506",,,DJI_202508191502_001_AreaTesteLines15ms_DewarpingDesabilitado,teste,0,14.9967,2,34.5475,34.5475,17.2738,14.9967,6.3287,106.9,"[100.9224, 75.6154]",65.7683,Alta,1,0,0,65,0.289,1.9114,42,54,179.9287,1.5692,11.9366,Fluorescent,Consistent,0.009,0.0094,0.0033,99.9927,0.3423,75,2,,,,,,,,
DJI_20250819150628_0040_V.JPG,G:/teste\DJI_202508191502_001_AreaTesteLines15ms_DewarpingDesabilitado\DJI_20250819150628_0040_V.JPG,MPO_RGB,7.33,WGS-84,M4E,10.04.00.16,"72.0","72.0","8.96578",2025:08:19 15:06:28,"2.97","2.97",2,"12.29",5280,3956,"0.002","2.8",2,160,0,"(24.0, 24.0, 2.8, 11.0)","1.0",RTK,RtkAlt,-10.215082288,-48.360074693,379.857,"+167.510","+180.00","+6.40","-90.00","+1.00","-173.60","-16.30","-14.9","-1.6","0.0","50","0.00273","0.00304","0.00758","1.20000","0",2025-08-19T18:06:48.016729,"1157",,493OM934AB01SN,M4E,1581F7FVC255700DJ63S,,,,"42.0",Normal,"165.259","-48.3600732","-10.2150678","2.225","214.700","4106",5819/100,160,"23","42.000000",single,"202508191506","20250819","1506",,,DJI_202508191502_001_AreaTesteLines15ms_DewarpingDesabilitado,teste,0,14.9857,3,36.1889,36.1889,12.063,14.9857,6.4414,106.3,"[100.7152, 75.4601]",64.0681,Alta,1,0,0,65,0.2893,1.9075,42,53.9,179.9586,1.5712,11.9366,Fluorescent,Consistent,0.016,0.1127,0.0004,99.9937,0.3593,75,2,,,,,,,,
DJI_20250819150630_0041_V.JPG,G:/teste\DJI_202508191502_001_AreaTesteLines15ms_DewarpingDesabilitado\DJI_20250819150630_0041_V.JPG,MPO_RGB,7.5,WGS-84,M4E,10.04.00.16,"72.0","72.0","8.96578",2025:08:19 15:06:30,"2.97","2.97",2,"12.29",5280,3956,"0.002","2.8",2,170,0,"(24.0, 24.0, 2.8, 11.0)","1.0",RTK,RtkAlt,-10.215394401,-48.360109549,379.888,"+167.534","+180.00","+6.40","-90.00","+2.10","-173.80","-15.20","-14.9","-1.7","0.0","50","0.00271","0.00302","0.00755","3.40000","0",2025-08-19T18:06:50.332046,"1158",,493OM934AB01SN,M4E,1581F7FVC255700DJ63S,,,,"42.0",Normal,"160.765","-48.3601093","-10.2153908","6.725","219.200","4119",5819/100,170,"23","42.000000",single,"202508191506","20250819","1506",,,DJI_202508191502_001_AreaTesteLines15ms_DewarpingDesabilitado,teste,0.2,14.9967,2,36.1326,36.1326,18.0663,14.9967,6.2769,105.2,"[97.9764, 73.4081]",63.1211,Alta,1,0,0,50,0.2895,1.8556,42,54,179.9231,1.6164,11.9366,Fluorescent,Consistent,0.031,0.1645,0.0004,99.9977,0.3688,60,2,,,,,,,,
DJI_20250819150632_0042_V.JPG,G:/teste\DJI_202508191502_001_AreaTesteLines15ms_DewarpingDesabilitado\DJI_20250819150632_0042_V.JPG,MPO_RGB,7.5,WGS-84,M4E,10.04.00.16,"72.0","72.0","8.96578",2025:08:19 15:06:32,"2.97","2.97",2,"12.29",5280,3956,"0.002","2.8",2,170,0,"(24.0, 24.0, 2.8, 11.0)","1.0",RTK,RtkAlt,-10.21571046,-48.36014526,379.869,"+167.527","+180.00","+6.50","-90.00","+2.80","-173.70","-16.60","-14.9","-1.6","0.0","50","0.00275","0.00314","0.00760","0.80000","0",2025-08-19T18:06:52.680259,"1159",,493OM934AB01SN,M4E,1581F7FVC255700DJ63S,,,,"42.0",Normal,"165.523","-48.3601444","-10.2157023","2.025","214.500","4103",5819/100,170,"23","42.000000",single,"202508191506","20250819","1506",,,DJI_202508191502_001_AreaTesteLines15ms_DewarpingDesabilitado,teste,0.2,14.9857,2,34.8495,34.8496,17.4248,14.9857,6.3279,106.6,"[100.8761, 75.5807]",65.4532,Alta,1,0,0.05,65,0.2898,1.9105,42,53.9,179.9721,1.5687,11.9366,Fluorescent,Consistent,0.019,0.051,0.0004,99.993,0.3455,75,2,,,,,,,,
DJI_20250819150635_0043_V.JPG,G:/teste\DJI_202508191502_001_AreaTesteLines15ms_DewarpingDesabilitado\DJI_20250819150635_0043_V.JPG,MPO_RGB,7.52,WGS-84,M4E,10.04.00.16,"72.0","72.0","8.96578",2025:08:19 15:06:35,"2.97","2.97",2,"12.29",5280,3956,"0.002","2.8",2,170,0,"(24.0, 24.0, 2.8, 11.0)","1.0",RTK,RtkAlt,-10.216030279,-48.360181731,379.859,"+167.513","+180.00","+6.50","-90.00","+0.90","-173.60","-17.30","-15.0","-1.6","0.0","50","0.00274","0.00314","0.00759","3.20000","0",2025-08-19T18:06:55.053620,"1160",,493OM934AB01SN,M4E,1581F7FVC255700DJ63S,,,,"42.0",Normal,"166.049","-48.3601798","-10.2160110","1.425","213.900","4104",5819/100,170,"23","42.000000",single,"202508191506","20250819","1506",,,DJI_202508191502_001_AreaTesteLines15ms_DewarpingDesabilitado,teste,0.1,15.0851,3,34.5438,34.5438,11.5146,15.0851,6.439,107.3,"[101.1967, 75.8208]",65.8647,Alta,1,0,0,50,0.29,1.9166,42,54.3,179.961,1.5741,11.9366,Fluorescent,Consistent,0.01,0.1111,0.0033,99.9993,0.3414,60,2,,,,,,,,
DJI_20250819150637_0044_V.JPG,G:/teste\DJI_202508191502_001_AreaTesteLines15ms_DewarpingDesabilitado\DJI_20250819150637_0044_V.JPG,MPO_RGB,7.52,WGS-84,M4E,10.04.00.16,"72.0","72.0","8.96578",2025:08:19 15:06:37,"2.97","2.97",2,"12.29",5280,3956,"0.002","2.8",2,170,0,"(24.0, 24.0, 2.8, 11.0)","1.0",RTK,RtkAlt,-10.216346123,-48.360216074,379.861,"+167.519","+180.00","+6.50","-90.00","+2.50","-173.60","-18.30","-14.9","-1.7","0.0","50","0.00274","0.00314","0.00758","5.60000","0",2025-08-19T18:06:57.398099,"1161",,493OM934AB01SN,M4E,1581F7FVC255700DJ63S,,,,"41.0",Normal,"166.222","-48.3602148","-10.2163344","1.325","213.800","4116",5819/100,170,"23","42.000000",single,"202508191506","20250819","1506",,,DJI_202508191502_001_AreaTesteLines15ms_DewarpingDesabilitado,teste,0.1,14.9967,2,36.1638,36.1638,18.0819,14.9967,6.0796,108.3,"[101.3021, 75.8998]",64.301,Alta,1,0,0,50,0.2903,1.9186,41.5,54,179.6796,1.5633,11.9366,Fluorescent,Consistent,0.002,0.3594,0.0029,99.9997,0.357,60,2,,,,,,,,
DJI_20250819150639_0045_V.JPG,G:/teste\DJI_202508191502_001_AreaTesteLines15ms_DewarpingDesabilitado\DJI_20250819150639_0045_V.JPG,MPO_RGB,7.45,WGS-84,M4E,10.04.00.16,"72.0","72.0","8.96578",2025:08:19 15:06:39,"2.97","2.97",2,"12.29",5280,3956,"0.002","2.8",2,170,0,"(24.0, 24.0, 2.8, 11.0)","1.0",RTK,RtkAlt,-10.216669008,-48.360253337,379.855,"+167.507","+180.00","+6.50","-90.00","+1.30","-173.60","-16.80","-14.9","-1.7","0.0","50","0.00274","0.00310","0.00751","3.00000","0",2025-08-19T18:06:59.791997,"1162",,493OM934AB01SN,M4E,1581F7FVC255700DJ63S,,,,"41.0",Normal,"165.634","-48.3602508","-10.2166459","1.925","214.400","4086",5819/100,170,"23","42.000000",single,"202508191506","20250819","1506",,,DJI_202508191502_001_AreaTesteLines15ms_DewarpingDesabilitado,teste,0.1,14.9967,2,34.8605,34.8605,17.4303,14.9967,6.4888,106.8,"[100.9437, 75.6313]",65.4654,Alta,1,0,0,50,0.2905,1.9118,41.5,54,179.9112,1.5688,11.9366,Fluorescent,Consistent,0.006,0.4092,0,99.9963,0.3453,60,2,,,,,,,,
DJI_20250819150642_0046_V.JPG,G:/teste\DJI_202508191502_001_AreaTesteLines15ms_DewarpingDesabilitado\DJI_20250819150642_0046_V.JPG,MPO_RGB,7.13,WGS-84,M4E,10.04.00.16,"72.0","72.0","8.96578",2025:08:19 15:06:42,"2.97","2.97",2,"12.29",5280,3956,"0.002","2.8",2,160,0,"(24.0, 24.0, 2.8, 11.0)","1.0",RTK,RtkAlt,-10.216987241,-48.360289325,379.852,"+167.498","+180.00","+6.50","-90.00","-0.60","-173.50","-16.40","-14.9","-1.8","0.0","50","0.00270","0.00302","0.00749","2.20000","0",2025-08-19T18:07:02.152079,"1163",,493OM934AB01SN,M4E,1581F7FVC255700DJ63S,,,,"41.0",Normal,"166.199","-48.3602887","-10.2169816","1.325","213.800","4111",5819/100,160,"23","42.000000",single,"202508191506","20250819","1506",,,DJI_202508191502_001_AreaTesteLines15ms_DewarpingDesabilitado,teste,0,15.0083,3,37.5578,37.5578,12.5193,15.0083,6.34,106.4,"[101.2881, 75.8893]",62.9198,Alta,1,0,0,50,0.2908,1.9183,41.5,54,179.84,1.5647,11.9366,Fluorescent,Consistent,0.003,0.1488,0.0004,99.9953,0.3708,60,2,,,,,,,,
DJI_20250819150644_0047_V.JPG,G:/teste\DJI_202508191502_001_AreaTesteLines15ms_DewarpingDesabilitado\DJI_20250819150644_0047_V.JPG,MPO_RGB,6.55,WGS-84,M4E,10.04.00.16,"72.0","72.0","8.96578",2025:08:19 15:06:44,"2.97","2.97",2,"12.29",5280,3956,"0.002","2.8",2,150,0,"(24.0, 24.0, 2.8, 11.0)","1.0",RTK,RtkAlt,-10.217300267,-48.36032477,379.854,"+167.506","+180.00","+6.50","-90.00","-0.60","-173.60","-16.00","-14.9","-1.7","0.0","50","0.00270","0.00305","0.00755","2.60000","0",2025-08-19T18:07:04.474044,"1164",,493OM934AB01SN,M4E,1581F7FVC255700DJ63S,,,,"41.0",Normal,"166.310","-48.3603240","-10.2172931","1.225","213.700","4142",5819/100,150,"23","42.000000",single,"202508191506","20250819","1506",,,DJI_202508191502_001_AreaTesteLines15ms_DewarpingDesabilitado,teste,0.1,14.9967,2,34.852,34.852,17.426,14.9967,6.3637,106,"[101.3557, 75.94]",65.6142,Alta,1,0,0,50,0.291,1.9196,41.5,54,179.9637,1.5625,11.9366,Fluorescent,Consistent,0.002,0.0237,0.0004,99.997,0.3439,60,2,,,,,,,,
DJI_20250819150646_0048_V.JPG,G:/teste\DJI_202508191502_001_AreaTesteLines15ms_DewarpingDesabilitado\DJI_20250819150646_0048_V.JPG,MPO_RGB,6.45,WGS-84,M4E,10.04.00.16,"72.0","72.0","8.96578",2025:08:19 15:06:46,"2.97","2.97",2,"12.29",5280,3956,"0.002","2.8",2,140,0,"(24.0, 24.0, 2.8, 11.0)","1.0",RTK,RtkAlt,-10.217621855,-48.360361105,379.88,"+167.518","+180.00","+6.50","-90.00","+0.90","-173.60","-14.20","-14.9","-1.7","0.0","50","0.00270","0.00301","0.00748","2.00000","0",2025-08-19T18:07:06.859009,"1165",,493OM934AB01SN,M4E,1581F7FVC255700DJ63S,,,,"41.0",Normal,"166.647","-48.3603589","-10.2176018","0.825","213.300","4168",5819/100,140,"23","42.000000",single,"202508191506","20250819","1506",,,DJI_202508191502_001_AreaTesteLines15ms_DewarpingDesabilitado,teste,0.1,14.9967,2,34.5377,34.5377,17.2688,14.9967,6.3487,104.2,"[101.5611, 76.0939]",65.9932,Alta,1,0,0,50,0.2913,1.9235,41.5,54,179.9487,1.5593,11.9366,Fluorescent,Consistent,0.026,0.015,0,99.9963,0.3401,60,2,,,,,,,,
DJI_20250819150649_0049_V.JPG,G:/teste\DJI_202508191502_001_AreaTesteLines15ms_DewarpingDesabilitado\DJI_20250819150649_0049_V.JPG,MPO_RGB,6.33,WGS-84,M4E,10.04.00.16,"72.0","72.0","8.96578",2025:08:19 15:06:49,"2.97","2.97",1,"12.29",5280,3956,"0.002","2.8",2,140,0,"(24.0, 24.0, 2.8, 11.0)","1.0",RTK,RtkAlt,-10.217936182,-48.360396867,379.894,"+167.535","+180.00","+6.50","-90.00","+0.80","-173.60","-14.60","-14.9","-1.6","0.0","50","0.00270","0.00301","0.00747","4.40000","0",2025-08-19T18:07:09.194660,"1166",,493OM934AB01SN,M4E,1581F7FVC255700DJ63S,,,,"41.0",Normal,"169.106","-48.3603956","-10.2179240","-1.575","210.900","4170",5819/100,140,"23","42.000000",single,"202508191506","20250819","1506",,,DJI_202508191502_001_AreaTesteLines15ms_DewarpingDesabilitado,teste,0.1,14.9857,3,36.0514,36.0514,12.0171,14.9857,6.396,104.6,"[103.0597, 77.2167]",65.0189,Alta,1,0,0,50,0.2915,1.9519,41.5,53.9,179.996,1.5355,11.9366,Daylight,Inconsistent,0.014,0.0473,0.0004,99.9997,0.3498,60,2,,,,,,,,
DJI_20250819150651_0050_V.JPG,G:/teste\DJI_202508191502_001_AreaTesteLines15ms_DewarpingDesabilitado\DJI_20250819150651_0050_V.JPG,MPO_RGB,6.35,WGS-84,M4E,10.04.00.16,"72.0","72.0","8.96578",2025:08:19 15:06:51,"2.97","2.97",2,"12.29",5280,3956,"0.002","2.8",2,130,0,"(24.0, 24.0, 2.8, 11.0)","1.0",RTK,RtkAlt,-10.218257059,-48.360432551,379.886,"+167.526","+180.00","+6.50","-90.00","+1.20","-173.60","-14.20","-14.9","-1.7","0.0","50","0.00267","0.00300","0.00745","1.60000","0",2025-08-19T18:07:11.575815,"1167",,493OM934AB01SN,M4E,1581F7FVC255700DJ63S,,,,"41.0",Normal,"167.624","-48.3604316","-10.2182481","-0.075","212.400","4172",5819/100,130,"23","42.000000",single,"202508191506","20250819","1506",,,DJI_202508191502_001_AreaTesteLines15ms_DewarpingDesabilitado,teste,0.1,14.9967,2,36.253,36.253,18.1265,14.9967,6.2385,104.2,"[102.1565, 76.54]",64.5123,Alta,1,0,0,65,0.2918,1.9348,41.5,54,179.8385,1.5502,11.9366,Fluorescent,Consistent,0.008,0.1575,0.0004,99.998,0.3549,75,2,,,,,,,,
DJI_20250819150654_0051_V.JPG,G:/teste\DJI_202508191502_001_AreaTesteLines15ms_DewarpingDesabilitado\DJI_20250819150654_0051_V.JPG,MPO_RGB,6.38,WGS-84,M4E,10.04.00.16,"72.0","72.0","8.96578",2025:08:19 15:06:54,"2.97","2.97",1,"12.29",5280,3956,"0.002","2.8",2,140,0,"(24.0, 24.0, 2.8, 11.0)","1.0",RTK,RtkAlt,-10.218585122,-48.360467089,380.049,"+167.534","+180.00","+6.40","-90.00","+3.40","-173.30","+23.60","-9.0","-0.5","0.0","50","0.00267","0.00300","0.00744","4.60000","0",2025-08-19T18:07:14.373032,"1168",,493OM934AB01SN,M4E,1581F7FVC255700DJ63S,,,,"41.0",Normal,"169.161","-48.3604667","-10.2185789","-1.675","210.800","4206",5819/100,140,"23","42.000000",single,"202508191506","20250819","1506",,,DJI_202508191502_001_AreaTesteLines15ms_DewarpingDesabilitado,teste,0.3,9.0139,3,36.9833,36.9836,12.3279,9.0139,5.9614,66.4,"[103.0932, 77.2418]",64.1263,Alta,1,0,0.0333,50,0.292,1.9525,41.5,32.4,179.2614,0.9233,11.9366,Daylight,Inconsistent,0.163,0.2771,0.2492,99.9997,0.3587,60,2,,,,,,,,
DJI_20250819150657_0052_V.JPG,G:/teste\DJI_202508191502_001_AreaTesteLines15ms_DewarpingDesabilitado\DJI_20250819150657_0052_V.JPG,MPO_RGB,6.34,WGS-84,M4E,10.04.00.16,"72.0","72.0","8.96578",2025:08:19 15:06:57,"2.97","2.97",2,"12.29",5280,3956,"0.002","2.8",2,140,0,"(24.0, 24.0, 2.8, 11.0)","1.0",RTK,RtkAlt,-10.218626401,-48.360490367,379.932,"+167.567","+180.00","+108.60","-90.00","+27.30","-66.00","-14.50","5.7","-0.2","0.0","50","0.00274","0.00303","0.00747","3.00000","0",2025-08-19T18:07:17.807647,"1169",,493OM934AB01SN,M4E,1581F7FVC255700DJ63S,,,,"41.0",Normal,"169.161","-48.3604882","-10.2186311","-1.575","210.900","4183",5819/100,140,"23","42.000000",single,"202508191506","20250819","1506",,,DJI_202508191502_001_AreaTesteLines15ms_DewarpingDesabilitado,teste,5.4,5.7035,3,6.2631,6.2642,2.0881,5.7035,22.0649,104.5,"[103.0932, 77.2418]",93.9248,Alta,1,0,34.0667,60,0.2923,1.9525,41.5,20.5,88.0649,0.5842,11.9366,Fluorescent,Consistent,0.117,16.1035,0.2249,99.9957,0.0608,70,2,,,,,,,,
DJI_20250819150701_0053_V.JPG,G:/teste\DJI_202508191502_001_AreaTesteLines15ms_DewarpingDesabilitado\DJI_20250819150701_0053_V.JPG,MPO_RGB,6.34,WGS-84,M4E,10.04.00.16,"72.0","72.0","8.96578",2025:08:19 15:07:01,"2.97","2.97",1,"12.29",5280,3956,"0.002","2.8",2,130,0,"(24.0, 24.0, 2.8, 11.0)","1.0",RTK,RtkAlt,-10.218268338,-48.360487874,379.844,"+167.502","+180.00","+179.60","-90.00","-2.20","-0.20","-18.90","14.9","-0.1","0.0","50","0.00267","0.00299","0.00743","1.40000","0",2025-08-19T18:07:21.206014,"1170",,493OM934AB01SN,M4E,1581F7FVC255700DJ63S,,,,"41.0",Normal,"167.753","-48.3604877","-10.2182811","-0.275","212.200","4222",5819/100,130,"23","42.000000",single,"202508191507","20250819","1507",,,DJI_202508191502_001_AreaTesteLines15ms_DewarpingDesabilitado,teste,0.2,14.9003,4,38.9183,38.9184,9.7296,14.9003,180.0806,108.9,"[102.2351, 76.5989]",61.9325,Alta,1,0,17.75,65,0.2925,1.9363,41.5,53.6,179.7194,1.5391,11.9366,Daylight,Inconsistent,0.088,158.0157,0.4464,99.995,0.3807,75,3,,,,,,,,
DJI_20250819150703_0054_V.JPG,G:/teste\DJI_202508191502_001_AreaTesteLines15ms_DewarpingDesabilitado\DJI_20250819150703_0054_V.JPG,MPO_RGB,6.34,WGS-84,M4E,10.04.00.16,"72.0","72.0","8.96578",2025:08:19 15:07:03,"2.97","2.97",2,"12.29",5280,3956,"0.002","2.8",2,140,0,"(24.0, 24.0, 2.8, 11.0)","1.0",RTK,RtkAlt,-10.2179611,-48.360488091,379.854,"+167.508","+180.00","-179.90","-90.00","-2.00","+0.00","-16.40","15.0","0.0","0.0","50","0.00269","0.00299","0.00743","1.60000","0",2025-08-19T18:07:23.471971,"1171",,493OM934AB01SN,M4E,1581F7FVC255700DJ63S,,,,"41.0",Normal,"168.880","-48.3604880","-10.2179837","-1.375","211.100","4173",5819/100,140,"23","42.000000",single,"202508191507","20250819","1507",,,DJI_202508191502_001_AreaTesteLines15ms_DewarpingDesabilitado,teste,0.1,15,2,33.0694,33.0694,16.5347,15,179.9431,106.4,"[102.922, 77.1135]",67.8695,Alta,1,0,0.25,65,0.2928,1.9493,41.5,54,179.9431,1.539,11.9366,Fluorescent,Consistent,0.01,0.1375,0.0033,99.9993,0.3213,75,3,,,,,,,,
DJI_20250819150705_0055_V.JPG,G:/teste\DJI_202508191502_001_AreaTesteLines15ms_DewarpingDesabilitado\DJI_20250819150705_0055_V.JPG,MPO_RGB,6.5,WGS-84,M4E,10.04.00.16,"72.0","72.0","8.96578",2025:08:19 15:07:05,"2.97","2.97",2,"12.29",5280,3956,"0.002","2.8",2,150,0,"(24.0, 24.0, 2.8, 11.0)","1.0",RTK,RtkAlt,-10.217639897,-48.3604885,379.857,"+167.514","+180.00","-179.70","-90.00","-0.90","-0.10","-18.40","15.0","0.0","0.0","50","0.00269","0.00303","0.00742","1.00000","0",2025-08-19T18:07:25.840783,"1172",,493OM934AB01SN,M4E,1581F7FVC255700DJ63S,,,,"41.0",Normal,"167.812","-48.3604884","-10.2176575","-0.275","212.200","4156",5819/100,150,"23","42.000000",single,"202508191507","20250819","1507",,,DJI_202508191502_001_AreaTesteLines15ms_DewarpingDesabilitado,teste,0.4,15,2,36.2718,36.2718,18.1359,15,179.9309,108.4,"[102.2711, 76.6259]",64.5337,Alta,1,0,0.1,65,0.293,1.937,41.5,54,179.9691,1.5488,11.9366,Fluorescent,Consistent,0.003,0.0122,0,99.999,0.3547,75,3,,,,,,,,
DJI_20250819150708_0056_V.JPG,G:/teste\DJI_202508191502_001_AreaTesteLines15ms_DewarpingDesabilitado\DJI_20250819150708_0056_V.JPG,MPO_RGB,6.72,WGS-84,M4E,10.04.00.16,"72.0","72.0","8.96578",2025:08:19 15:07:08,"2.97","2.97",2,"12.29",5280,3956,"0.002","2.8",2,150,0,"(24.0, 24.0, 2.8, 11.0)","1.0",RTK,RtkAlt,-10.217321576,-48.360487931,379.861,"+167.508","+180.00","-179.60","-90.00","-2.00","+0.10","-15.60","15.0","0.0","0.0","50","0.00279","0.00307","0.00760","3.20000","0",2025-08-19T18:07:28.182365,"1173",,493OM934AB01SN,M4E,1581F7FVC255700DJ63S,,,,"41.0",Normal,"157.972","-48.3604879","-10.2173313","9.525","222.000","4165",5819/100,150,"23","42.000000",single,"202508191507","20250819","1507",,,DJI_202508191502_001_AreaTesteLines15ms_DewarpingDesabilitado,teste,0.3,15,3,36.2718,36.2718,12.0906,15,180.0864,105.6,"[96.2742, 72.1327]",62.3245,Alta,1,0,0.0333,50,0.2933,1.8234,41.5,54,179.9864,1.6453,11.9366,Fluorescent,Consistent,0.004,0.1555,0,99.9893,0.3768,60,3,,,,,,,,
DJI_20250819150710_0057_V.JPG,G:/teste\DJI_202508191502_001_AreaTesteLines15ms_DewarpingDesabilitado\DJI_20250819150710_0057_V.JPG,MPO_RGB,7.27,WGS-84,M4E,10.04.00.16,"72.0","72.0","8.96578",2025:08:19 15:07:10,"2.97","2.97",2,"12.29",5280,3956,"0.002","2.8",2,170,0,"(24.0, 24.0, 2.8, 11.0)","1.0",RTK,RtkAlt,-10.216999888,-48.360487653,379.901,"+167.547","+180.00","-179.60","-90.00","-3.10","+0.00","-15.20","15.0","0.0","0.0","50","0.00270","0.00299","0.00744","2.60000","0",2025-08-19T18:07:30.554231,"1174",,493OM934AB01SN,M4E,1581F7FVC255700DJ63S,,,,"41.0",Normal,"161.740","-48.3604876","-10.2170187","5.825","218.300","4119",5819/100,170,"23","42.000000",single,"202508191507","20250819","1507",,,DJI_202508191502_001_AreaTesteLines15ms_DewarpingDesabilitado,teste,0.4,15,2,34.7595,34.7596,17.3798,15,180.0541,105.2,"[98.5706, 73.8533]",64.7364,Alta,1,0,0,50,0.2935,1.8669,41.5,54,179.9459,1.607,11.9366,Fluorescent,Consistent,0.04,0.0323,0,99.989,0.3526,60,3,,,,,,,,
DJI_20250819150712_0058_V.JPG,G:/teste\DJI_202508191502_001_AreaTesteLines15ms_DewarpingDesabilitado\DJI_20250819150712_0058_V.JPG,MPO_RGB,7.55,WGS-84,M4E,10.04.00.16,"72.0","72.0","8.96578",2025:08:19 15:07:12,"2.97","2.97",2,"12.29",5280,3956,"0.002","2.8",2,170,0,"(24.0, 24.0, 2.8, 11.0)","1.0",RTK,RtkAlt,-10.216679248,-48.360488019,379.856,"+167.505","+180.00","-179.70","-90.00","-3.50","+0.20","-16.70","14.9","0.0","0.0","50","0.00270","0.00299","0.00742","5.00000","0",2025-08-19T18:07:32.921249,"1175",,493OM934AB01SN,M4E,1581F7FVC255700DJ63S,,,,"41.0",Normal,"166.485","-48.3604880","-10.2166928","1.025","213.500","4102",5819/100,170,"23","42.000000",single,"202508191507","20250819","1507",,,DJI_202508191502_001_AreaTesteLines15ms_DewarpingDesabilitado,teste,0.1,14.9,2,36.2385,36.2385,18.1192,14.9,179.9308,106.7,"[101.4624, 76.0199]",64.2838,Alta,1,0,0.05,50,0.2938,1.9216,41.5,53.6,179.7308,1.5508,11.9366,Fluorescent,Consistent,0.045,0.1233,0.0033,99.9993,0.3572,60,3,,,,,,,,
DJI_20250819150715_0059_V.JPG,G:/teste\DJI_202508191502_001_AreaTesteLines15ms_DewarpingDesabilitado\DJI_20250819150715_0059_V.JPG,MPO_RGB,7.59,WGS-84,M4E,10.04.00.16,"72.0","72.0","8.96578",2025:08:19 15:07:15,"2.97","2.97",2,"12.29",5280,3956,"0.002","2.8",2,170,0,"(24.0, 24.0, 2.8, 11.0)","1.0",RTK,RtkAlt,-10.216362275,-48.360488294,379.874,"+167.520","+180.00","-179.80","-90.00","-2.20","+0.00","-16.20","15.0","0.0","0.0","50","0.00271","0.00310","0.00741","2.40000","0",2025-08-19T18:07:35.258499,"1176",,493OM934AB01SN,M4E,1581F7FVC255700DJ63S,,,,"41.0",Normal,"165.429","-48.3604883","-10.2163823","2.125","214.600","4095",5819/100,170,"23","41.900000",single,"202508191507","20250819","1507",,,DJI_202508191502_001_AreaTesteLines15ms_DewarpingDesabilitado,teste,0.2,15,3,34.526,34.526,11.5087,15,179.9455,106.2,"[100.8188, 75.5377]",65.7544,Alta,1,0,0.0333,50,0.294,1.9094,41.45,54,179.9455,1.5711,11.9366,Fluorescent,Consistent,0.018,0.0147,0.0033,99.9963,0.3425,60,3,,,,,,,,
DJI_20250819150717_0060_V.JPG,G:/teste\DJI_202508191502_001_AreaTesteLines15ms_DewarpingDesabilitado\DJI_20250819150717_0060_V.JPG,MPO_RGB,7.59,WGS-84,M4E,10.04.00.16,"72.0","72.0","8.96578",2025:08:19 15:07:17,"2.97","2.97",2,"12.29",5280,3956,"0.002","2.8",2,170,0,"(24.0, 24.0, 2.8, 11.0)","1.0",RTK,RtkAlt,-10.216040206,-48.360488098,379.881,"+167.527","+180.00","-179.80","-90.00","-2.80","+0.20","-15.70","15.0","0.0","0.0","50","0.00278","0.00316","0.00750","0.80000","0",2025-08-19T18:07:37.634678,"1177",,493OM934AB01SN,M4E,1581F7FVC255700DJ63S,,,,"41.0",Normal,"164.275","-48.3604880","-10.2160570","3.225","215.700","4107",5819/100,170,"23","41.900000",single,"202508191507","20250819","1507",,,DJI_202508191502_001_AreaTesteLines15ms_DewarpingDesabilitado,teste,0,15,2,36.1717,36.1717,18.0859,15,180.052,105.7,"[100.1155, 75.0108]",63.87,Alta,1,0,0,65,0.2942,1.8961,41.45,54,179.852,1.5822,11.9366,Fluorescent,Consistent,0.007,0.1065,0,99.9927,0.3613,75,3,,,,,,,,
