foto,alt,data_name,numdovoo,nomedovoo,pasta1,pasta2,mrk_folder,FlightYawDegree,abrupt_change_flag,LRFStatus,GimbalRollDegree,format,GpsStatus,DroneModel,dt_time,segmentos_total,light_source_classification,distance_3d_previous,ExifImageHeight,photogrammetry_quality_index,trajectory_smoothness,incidence_angle,LRFTargetAlt,speed_variation_index,DateTimeOriginal,file,YResolution,CameraSerialNumber,FNumber,dt_date,gimbal_angular_velocity,linear_velocity_instant,RtkDiffAge,rtk_effective_precision,FlightXSpeed,ShutterSpeedValue,FocusDistance,ShutterCount,path,LRFTargetAbsAlt,yaw_alignment_error,avg_velocity_between_photos,shutter_life_pct,FolderLevel2,LensTemperature,geodesic_distance_previous,AltitudeType,CaptureUUID,GimbalYawDegree,RtkStdHgt,FlightRollDegree,DigitalZoomRatio,speed_3d_kmh,dt_full,GPSMapDatum,RtkStdLon,LensPosition,predicted_overlap,SensorFPS,Model,FlightName,is_ideal_overlap,LRFTargetLon,orthorectification_potential,lon,ExposureMode,DroneSerialNumber,XResolution,mrk_path,ISOSpeedRatings,motion_blur_risk,FlightPitchDegree,DewarpFlag,displacement_direction,SensorTemperature,total_heat_index,AbsoluteAltitude,FlightZSpeed,RelativeAltitude,FileType,ExposureTime,RtkStdLat,UTCAtExposure,capture_efficiency,vertical_stability,LRFTargetDistance,exposure_value_ev,LRFTargetLat,PictureQuality,RtkFlag,size_mb,rtk_stability_score,estimated_coverage,lat,ApertureValue,ground_sample_distance_cm,GimbalOffset,ExifImageWidth,Software,LensSpecification,FocalLength,MaxApertureValue,GimbalPitchDegree,FlightYSpeed,RecommendedExposureIndex,mrk_file,strip_id,3DSpeed,LightSource,light_consistency,GpsLatitude,ExposureProgram,time_since_previous,FlightNumber,GpsLongitude,FolderLevel1,WhiteBalanceCCT
1,986.086,"20260401","001",m2,DJI_202604011322_001_m2,NULL,F:\AGROCERRADO\Faz Talisma Correntina\INPUT\20260401\M3E\DJI_202604011322_001_m2,"-17.50",False,Normal,"+180.00",MPO_RGB,RTK,M3E,"1329",,Daylight,"0.0","3956","35","0.0","91.8","0.000","0.0",2026:04:01 13:29:05,DJI_20260401132905_0001_V.JPG,"72.0",493ON344AB04YQ,"2.8","20260401","0.0","0.2449","1.00000",Média,"0.2","7.9658","15371","51355",F:\AGROCERRADO\Faz Talisma Correntina\INPUT\20260401\M3E\DJI_202604011322_001_m2\DJI_20260401132905_0001_V.JPG,"0.000","0.0","0.0","12.8387",NULL,,"0.0",RtkAlt,,"+163.80","0.03745","-1.30","1.0","0.9","202604011329",WGS-84,"0.01301",,"0.0",,M3E,m2,False,"0.0000000","15",,"0",1581F5FH82577002N061,"72.0",,"110","0.0101","-1.80",,"0.0",,"0.0","+986.086","0.1","+186.209",.JPG,"0.004","0.01268",2026-04-01T16:29:24.618304,"0.0","0.0","0.000","10.9366","0.0000000","90","50","12.78","0.0","(600.9588, 450.2639)",,"2.97","9.6745","1.3","5280",11.09.08.24,"(0.24, 0.24, 2.8, 11.0)","12.29","2.97","-90.00","-0.1",,,"1","0.2449","1",Unknown,"(13.0, 40.0, 44.5064)","2","0.0","001","(45.0, 37.0, 41.6761)",DJI_202604011322_001_m2,
2,986.026,"20260401","001",m2,DJI_202604011322_001_m2,NULL,F:\AGROCERRADO\Faz Talisma Correntina\INPUT\20260401\M3E\DJI_202604011322_001_m2,"-18.00",True,Normal,"+0.00",MPO_RGB,RTK,M3E,"1329",,Daylight,"0.06","3956","45","0.0","103.0","0.000","0.9628",2026:04:01 13:29:13,DJI_20260401132913_0002_V.JPG,"72.0",493ON344AB04YQ,"2.8","20260401","22.2875","12.9341","0.80000",Média,"12.3","8.9658","15371","51356",F:\AGROCERRADO\Faz Talisma Correntina\INPUT\20260401\M3E\DJI_202604011322_001_m2\DJI_20260401132913_0002_V.JPG,"0.000","18.0","0.0075","12.839",NULL,,"0.0",RtkAlt,,"-17.90","0.03719","+0.20","1.0","46.6","202604011329",WGS-84,"0.01292",,"100.0",,M3E,m2,True,"0.0000000","25",,"0",1581F5FH82577002N061,"72.0",,"270","0.2674","-13.10",,"0.0",,"0.0","+986.026","0.0","+186.176",.JPG,"0.002","0.01241",2026-04-01T16:29:31.670920,"0.0","0.06","0.000","11.9366","0.0000000","90","50","12.84","99.9793","(600.9223, 450.2365)",,"2.97","9.6739","0.1","5280",11.09.08.24,"(0.24, 0.24, 2.8, 11.0)","12.29","2.97","-89.90","-4.0",,,"1","12.9341","1",Unknown,"(13.0, 40.0, 42.9132)","2","8.0","001","(45.0, 37.0, 42.2143)",DJI_202604011322_001_m2,
3,986.045,"20260401","001",m2,DJI_202604011322_001_m2,NULL,F:\AGROCERRADO\Faz Talisma Correntina\INPUT\20260401\M3E\DJI_202604011322_001_m2,"-18.10",False,Normal,"+180.00",MPO_RGB,RTK,M3E,"1329",,Daylight,"0.019","3956","45","0.0","101.2","0.000","0.0715",2026:04:01 13:29:16,DJI_20260401132916_0003_V.JPG,"72.0",493ON344AB04YQ,"2.8","20260401","60.0","14.9265","1.40000",Média,"14.2","8.9658","15371","51357",F:\AGROCERRADO\Faz Talisma Correntina\INPUT\20260401\M3E\DJI_202604011322_001_m2\DJI_20260401132916_0003_V.JPG,"0.000","18.1","0.0063","12.8392",NULL,,"0.0",RtkAlt,,"+162.10","0.03691","+0.60","1.0","53.7","202604011329",WGS-84,"0.01277",,"100.0",,M3E,m2,True,"0.0000000","25",,"0",1581F5FH82577002N061,"72.0",,"200","0.3086","-11.20",,"0.0",,"0.0","+986.045","0.0","+186.170",.JPG,"0.002","0.01226",2026-04-01T16:29:35.179397,"0.0","0.019","0.000","11.9366","0.0000000","90","50","12.53","99.9807","(600.9339, 450.2451)",,"2.97","9.6741","0.2","5280",11.09.08.24,"(0.24, 0.24, 2.8, 11.0)","12.29","2.97","-90.00","-4.6",,,"1","14.9265","1",Unknown,"(13.0, 40.0, 41.3767)","2","3.0","001","(45.0, 37.0, 42.7293)",DJI_202604011322_001_m2,
4,986.013,"20260401","001",m2,DJI_202604011322_001_m2,NULL,F:\AGROCERRADO\Faz Talisma Correntina\INPUT\20260401\M3E\DJI_202604011322_001_m2,"-18.00",False,Normal,"+180.00",MPO_RGB,RTK,M3E,"1329",,Daylight,"0.032","3956","45","0.0","100.5","0.000","0.0032",2026:04:01 13:29:19,DJI_20260401132919_0004_V.JPG,"72.0",493ON344AB04YQ,"2.8","20260401","0.0","14.8314","1.60000",Média,"14.1","8.9658","15371","51358",F:\AGROCERRADO\Faz Talisma Correntina\INPUT\20260401\M3E\DJI_202604011322_001_m2\DJI_20260401132919_0004_V.JPG,"0.000","18.0","0.0107","12.8395",NULL,,"0.0",RtkAlt,,"+162.10","0.03666","+0.00","1.0","53.4","202604011329",WGS-84,"0.01270",,"100.0",,M3E,m2,True,"0.0000000","25",,"0",1581F5FH82577002N061,"72.0",,"210","0.3066","-10.50",,"0.0",,"0.0","+986.013","0.0","+186.183",.JPG,"0.002","0.01220",2026-04-01T16:29:38.489900,"0.0","0.032","0.000","11.9366","0.0000000","90","50","12.67","99.9873","(600.9144, 450.2305)",,"2.97","9.6738","0.1","5280",11.09.08.24,"(0.24, 0.24, 2.8, 11.0)","12.29","2.97","-90.00","-4.6",,,"1","14.8314","1",Unknown,"(13.0, 40.0, 39.8474)","2","3.0","001","(45.0, 37.0, 43.239)",DJI_202604011322_001_m2,
5,985.988,"20260401","001",m2,DJI_202604011322_001_m2,NULL,F:\AGROCERRADO\Faz Talisma Correntina\INPUT\20260401\M3E\DJI_202604011322_001_m2,"-18.00",False,Normal,"+180.00",MPO_RGB,RTK,M3E,"1329",,Daylight,"0.025","3956","45","0.0","100.8","0.000","0.0032",2026:04:01 13:29:23,DJI_20260401132923_0005_V.JPG,"72.0",493ON344AB04YQ,"2.8","20260401","0.025","14.9265","1.00000",Média,"14.2","8.9658","15371","51359",F:\AGROCERRADO\Faz Talisma Correntina\INPUT\20260401\M3E\DJI_202604011322_001_m2\DJI_20260401132923_0005_V.JPG,"0.000","18.0","0.0062","12.8398",NULL,,"0.0",RtkAlt,,"+162.20","0.03666","+0.80","1.0","53.7","202604011329",WGS-84,"0.01276",,"100.0",,M3E,m2,True,"0.0000000","25",,"0",1581F5FH82577002N061,"72.0",,"190","0.3086","-10.80",,"0.0",,"0.0","+985.988","0.0","+186.154",.JPG,"0.002","0.01225",2026-04-01T16:29:41.786293,"0.0","0.025","0.000","11.9366","0.0000000","90","50","12.34","99.9963","(600.8991, 450.2191)",,"2.97","9.6736","0.2","5280",11.09.08.24,"(0.24, 0.24, 2.8, 11.0)","12.29","2.97","-90.00","-4.6",,,"1","14.9265","1",Unknown,"(13.0, 40.0, 38.3305)","2","4.0","001","(45.0, 37.0, 43.7487)",DJI_202604011322_001_m2,
6,985.998,"20260401","001",m2,DJI_202604011322_001_m2,NULL,F:\AGROCERRADO\Faz Talisma Correntina\INPUT\20260401\M3E\DJI_202604011322_001_m2,"-18.00",False,Normal,"+0.00",MPO_RGB,RTK,M3E,"1329",,Fluorescent,"0.01","3956","45","0.0","100.4","0.000","0.0",2026:04:01 13:29:26,DJI_20260401132926_0006_V.JPG,"72.0",493ON344AB04YQ,"2.8","20260401","60.0","14.9265","1.20000",Média,"14.2","8.9658","15371","51360",F:\AGROCERRADO\Faz Talisma Correntina\INPUT\20260401\M3E\DJI_202604011322_001_m2\DJI_20260401132926_0006_V.JPG,"0.000","18.0","0.0033","12.84",NULL,,"0.0",RtkAlt,,"-17.80","0.03645","+0.70","1.0","53.7","202604011329",WGS-84,"0.01262",,"100.0",,M3E,m2,True,"0.0000000","25",,"0",1581F5FH82577002N061,"72.0",,"240","0.3086","-10.50",,"0.0",,"0.0","+985.998","0.0","+186.146",.JPG,"0.002","0.01207",2026-04-01T16:29:45.078145,"0.0","0.01","0.000","11.9366","0.0000000","90","50","13.12","99.9823","(600.9052, 450.2237)",,"2.97","9.6737","0.2","5280",11.09.08.24,"(0.24, 0.24, 2.8, 11.0)","12.29","2.97","-89.90","-4.6",,,"1","14.9265","2",Unknown,"(13.0, 40.0, 36.8113)","2","3.0","001","(45.0, 37.0, 44.2553)",DJI_202604011322_001_m2,
7,986.018,"20260401","001",m2,DJI_202604011322_001_m2,NULL,F:\AGROCERRADO\Faz Talisma Correntina\INPUT\20260401\M3E\DJI_202604011322_001_m2,"-18.00",False,Normal,"+180.00",MPO_RGB,RTK,M3E,"1329",,Fluorescent,"0.02","3956","45","0.0","100.5","0.000","0.0",2026:04:01 13:29:29,DJI_20260401132929_0007_V.JPG,"72.0",493ON344AB04YQ,"2.8","20260401","60.0","14.9265","1.60000",Média,"14.2","8.9658","15371","51361",F:\AGROCERRADO\Faz Talisma Correntina\INPUT\20260401\M3E\DJI_202604011322_001_m2\DJI_20260401132929_0007_V.JPG,"0.000","18.0","0.0067","12.8403",NULL,,"0.0",RtkAlt,,"+162.20","0.03624","+0.60","1.0","53.7","202604011329",WGS-84,"0.01262",,"100.0",,M3E,m2,True,"0.0000000","25",,"0",1581F5FH82577002N061,"72.0",,"230","0.3086","-10.50",,"0.0",,"0.0","+986.018","0.0","+186.161",.JPG,"0.002","0.01210",2026-04-01T16:29:48.347221,"0.0","0.02","0.000","11.9366","0.0000000","90","50","13.06","99.994","(600.9174, 450.2328)",,"2.97","9.6739","0.2","5280",11.09.08.24,"(0.24, 0.24, 2.8, 11.0)","12.29","2.97","-90.00","-4.6",,,"1","14.9265","2",Unknown,"(13.0, 40.0, 35.3014)","2","3.0","001","(45.0, 37.0, 44.7588)",DJI_202604011322_001_m2,
8,985.992,"20260401","001",m2,DJI_202604011322_001_m2,NULL,F:\AGROCERRADO\Faz Talisma Correntina\INPUT\20260401\M3E\DJI_202604011322_001_m2,"-18.00",False,Normal,"+0.00",MPO_RGB,RTK,M3E,"1329",,Fluorescent,"0.026","3956","45","0.0","100.1","0.000","0.0032",2026:04:01 13:29:33,DJI_20260401132933_0008_V.JPG,"72.0",493ON344AB04YQ,"2.8","20260401","45.0","14.8314","0.80000",Média,"14.1","8.9658","15371","51362",F:\AGROCERRADO\Faz Talisma Correntina\INPUT\20260401\M3E\DJI_202604011322_001_m2\DJI_20260401132933_0008_V.JPG,"0.000","18.0","0.0065","12.8405",NULL,,"0.0",RtkAlt,,"-17.80","0.03620","+0.60","1.0","53.4","202604011329",WGS-84,"0.01256",,"100.0",,M3E,m2,True,"0.0000000","25",,"0",1581F5FH82577002N061,"72.0",,"230","0.3066","-10.20",,"0.0",,"0.0","+985.992","0.0","+186.155",.JPG,"0.002","0.01199",2026-04-01T16:29:51.657723,"0.0","0.026","0.000","11.9366","0.0000000","90","50","13.05","99.993","(600.9016, 450.2209)",,"2.97","9.6736","0.2","5280",11.09.08.24,"(0.24, 0.24, 2.8, 11.0)","12.29","2.97","-89.90","-4.6",,,"1","14.8314","2",Unknown,"(13.0, 40.0, 33.774)","2","4.0","001","(45.0, 37.0, 45.2692)",DJI_202604011322_001_m2,
9,985.987,"20260401","001",m2,DJI_202604011322_001_m2,NULL,F:\AGROCERRADO\Faz Talisma Correntina\INPUT\20260401\M3E\DJI_202604011322_001_m2,"-18.00",False,Normal,"+0.00",MPO_RGB,RTK,M3E,"1329",,Fluorescent,"0.005","3956","45","0.0","100.4","0.000","0.0",2026:04:01 13:29:36,DJI_20260401132936_0009_V.JPG,"72.0",493ON344AB04YQ,"2.8","20260401","0.0","14.8314","1.20000",Média,"14.1","8.9658","15371","51363",F:\AGROCERRADO\Faz Talisma Correntina\INPUT\20260401\M3E\DJI_202604011322_001_m2\DJI_20260401132936_0009_V.JPG,"0.000","18.0","0.0017","12.8407",NULL,,"0.0",RtkAlt,,"-17.80","0.03594","-0.30","1.0","53.4","202604011329",WGS-84,"0.01243",,"100.0",,M3E,m2,True,"0.0000000","25",,"0",1581F5FH82577002N061,"72.0",,"230","0.3066","-10.50",,"0.0",,"0.0","+985.987","0.0","+186.141",.JPG,"0.002","0.01191",2026-04-01T16:29:54.956391,"0.0","0.005","0.000","11.9366","0.0000000","90","50","12.99","99.9843","(600.8985, 450.2187)",,"2.97","9.6736","0.2","5280",11.09.08.24,"(0.24, 0.24, 2.8, 11.0)","12.29","2.97","-89.90","-4.6",,,"1","14.8314","2",Unknown,"(13.0, 40.0, 32.2513)","2","3.0","001","(45.0, 37.0, 45.7777)",DJI_202604011322_001_m2,
10,985.998,"20260401","001",m2,DJI_202604011322_001_m2,NULL,F:\AGROCERRADO\Faz Talisma Correntina\INPUT\20260401\M3E\DJI_202604011322_001_m2,"-18.00",False,Normal,"+0.00",MPO_RGB,RTK,M3E,"1329",,Fluorescent,"0.011","3956","45","0.0","100.1","0.000","0.0",2026:04:01 13:29:39,DJI_20260401132939_0010_V.JPG,"72.0",493ON344AB04YQ,"2.8","20260401","0.0333","14.8314","1.40000",Média,"14.1","8.9658","15371","51364",F:\AGROCERRADO\Faz Talisma Correntina\INPUT\20260401\M3E\DJI_202604011322_001_m2\DJI_20260401132939_0010_V.JPG,"0.000","18.0","0.0037","12.841",NULL,,"0.0",RtkAlt,,"-17.90","0.03607","+0.30","1.0","53.4","202604011329",WGS-84,"0.01249",,"100.0",,M3E,m2,True,"0.0000000","25",,"0",1581F5FH82577002N061,"72.0",,"220","0.3066","-10.20",,"0.0",,"0.0","+985.998","0.0","+186.142",.JPG,"0.002","0.01194",2026-04-01T16:29:58.226842,"0.0","0.011","0.000","11.9366","0.0000000","90","50","13.01","99.9927","(600.9052, 450.2237)",,"2.97","9.6737","0.1","5280",11.09.08.24,"(0.24, 0.24, 2.8, 11.0)","12.29","2.97","-89.90","-4.6",,,"1","14.8314","2",Unknown,"(13.0, 40.0, 30.7412)","2","3.0","001","(45.0, 37.0, 46.2827)",DJI_202604011322_001_m2,
11,985.991,"20260401","001",m2,DJI_202604011322_001_m2,NULL,F:\AGROCERRADO\Faz Talisma Correntina\INPUT\20260401\M3E\DJI_202604011322_001_m2,"-18.00",False,Normal,"+180.00",MPO_RGB,RTK,M3E,"1329",,Fluorescent,"0.007","3956","45","0.0","100.1","0.000","0.0",2026:04:01 13:29:42,DJI_20260401132942_0011_V.JPG,"72.0",493ON344AB04YQ,"2.8","20260401","60.0","14.8314","0.80000",Média,"14.1","8.9658","15371","51365",F:\AGROCERRADO\Faz Talisma Correntina\INPUT\20260401\M3E\DJI_202604011322_001_m2\DJI_20260401132942_0011_V.JPG,"0.000","18.0","0.0023","12.8413",NULL,,"0.0",RtkAlt,,"+162.10","0.03593","-0.20","1.0","53.4","202604011329",WGS-84,"0.01244",,"100.0",,M3E,m2,True,"0.0000000","25",,"0",1581F5FH82577002N061,"72.0",,"220","0.3066","-10.10",,"0.0",,"0.0","+985.991","0.0","+186.147",.JPG,"0.002","0.01188",2026-04-01T16:30:01.538702,"0.0","0.007","0.000","11.9366","0.0000000","90","50","12.95","99.9917","(600.9009, 450.2205)",,"2.97","9.6736","0.1","5280",11.09.08.24,"(0.24, 0.24, 2.8, 11.0)","12.29","2.97","-90.00","-4.6",,,"1","14.8314","2",Unknown,"(13.0, 40.0, 29.2133)","2","3.0","001","(45.0, 37.0, 46.7931)",DJI_202604011322_001_m2,
12,985.958,"20260401","001",m2,DJI_202604011322_001_m2,NULL,F:\AGROCERRADO\Faz Talisma Correntina\INPUT\20260401\M3E\DJI_202604011322_001_m2,"-18.00",False,Normal,"+180.00",MPO_RGB,RTK,M3E,"1329",,Fluorescent,"0.033","3956","45","0.0","99.9","0.000","0.0",2026:04:01 13:29:46,DJI_20260401132946_0012_V.JPG,"72.0",493ON344AB04YQ,"2.8","20260401","0.0","14.8314","1.00000",Média,"14.1","8.9658","15371","51366",F:\AGROCERRADO\Faz Talisma Correntina\INPUT\20260401\M3E\DJI_202604011322_001_m2\DJI_20260401132946_0012_V.JPG,"0.000","18.0","0.0083","12.8415",NULL,,"0.0",RtkAlt,,"+162.10","0.03584","+0.10","1.0","53.4","202604011329",WGS-84,"0.01244",,"100.0",,M3E,m2,True,"0.0000000","25",,"0",1581F5FH82577002N061,"72.0",,"220","0.3066","-9.90",,"0.0",,"0.0","+985.958","0.0","+186.116",.JPG,"0.002","0.01188",2026-04-01T16:30:04.832369,"0.0","0.033","0.000","11.9366","0.0000000","90","50","12.97","99.997","(600.8808, 450.2054)",,"2.97","9.6733","0.1","5280",11.09.08.24,"(0.24, 0.24, 2.8, 11.0)","12.29","2.97","-90.00","-4.6",,,"1","14.8314","2",Unknown,"(13.0, 40.0, 27.6943)","2","4.0","001","(45.0, 37.0, 47.3021)",DJI_202604011322_001_m2,
13,986.004,"20260401","001",m2,DJI_202604011322_001_m2,NULL,F:\AGROCERRADO\Faz Talisma Correntina\INPUT\20260401\M3E\DJI_202604011322_001_m2,"-18.00",False,Normal,"+0.00",MPO_RGB,RTK,M3E,"1329",,Fluorescent,"0.046","3956","45","0.0","99.8","0.000","0.0",2026:04:01 13:29:49,DJI_20260401132949_0013_V.JPG,"72.0",493ON344AB04YQ,"2.8","20260401","60.0","14.8314","1.20000",Média,"14.1","8.9658","15371","51367",F:\AGROCERRADO\Faz Talisma Correntina\INPUT\20260401\M3E\DJI_202604011322_001_m2\DJI_20260401132949_0013_V.JPG,"0.000","18.0","0.0153","12.8417",NULL,,"0.0",RtkAlt,,"-17.90","0.03617","+0.00","1.0","53.4","202604011329",WGS-84,"0.01238",,"100.0",,M3E,m2,True,"0.0000000","25",,"0",1581F5FH82577002N061,"72.0",,"220","0.3066","-9.90",,"0.0",,"0.0","+986.004","0.0","+186.151",.JPG,"0.002","0.01180",2026-04-01T16:30:08.136505,"0.0","0.046","0.000","11.9366","0.0000000","90","50","12.98","99.9937","(600.9089, 450.2264)",,"2.97","9.6737","0.1","5280",11.09.08.24,"(0.24, 0.24, 2.8, 11.0)","12.29","2.97","-89.90","-4.6",,,"1","14.8314","2",Unknown,"(13.0, 40.0, 26.1711)","2","3.0","001","(45.0, 37.0, 47.8125)",DJI_202604011322_001_m2,
14,985.995,"20260401","001",m2,DJI_202604011322_001_m2,NULL,F:\AGROCERRADO\Faz Talisma Correntina\INPUT\20260401\M3E\DJI_202604011322_001_m2,"-18.00",False,Normal,"+180.00",MPO_RGB,RTK,M3E,"1329",,Fluorescent,"0.009","3956","75","0.0","99.8","0.000","0.0",2026:04:01 13:29:52,DJI_20260401132952_0014_V.JPG,"72.0",493ON344AB04YQ,"2.8","20260401","60.0","14.8314","1.60000",Alta,"14.1","8.9658","15371","51368",F:\AGROCERRADO\Faz Talisma Correntina\INPUT\20260401\M3E\DJI_202604011322_001_m2\DJI_20260401132952_0014_V.JPG,"0.000","18.0","0.003","12.842",NULL,,"0.0",RtkAlt,,"+162.10","0.03558","+0.00","1.0","53.4","202604011329",WGS-84,"0.01228",,"100.0",,M3E,m2,True,"0.0000000","55",,"0",1581F5FH82577002N061,"72.0",,"220","0.3066","-9.80",,"0.0",,"0.0","+985.995","0.0","+186.149",.JPG,"0.002","0.01174",2026-04-01T16:30:11.428340,"0.0","0.009","0.000","11.9366","0.0000000","90","50","13.0","99.975","(600.9034, 450.2223)",,"2.97","9.6736","0.1","5280",11.09.08.24,"(0.24, 0.24, 2.8, 11.0)","12.29","2.97","-90.00","-4.6",,,"1","14.8314","2",Unknown,"(13.0, 40.0, 24.6522)","2","3.0","001","(45.0, 37.0, 48.3203)",DJI_202604011322_001_m2,
15,985.986,"20260401","001",m2,DJI_202604011322_001_m2,NULL,F:\AGROCERRADO\Faz Talisma Correntina\INPUT\20260401\M3E\DJI_202604011322_001_m2,"-18.00",False,Normal,"+180.00",MPO_RGB,RTK,M3E,"1329",,Fluorescent,"0.009","3956","75","0.0","99.8","0.000","0.0",2026:04:01 13:29:56,DJI_20260401132956_0015_V.JPG,"72.0",493ON344AB04YQ,"2.8","20260401","0.025","14.8314","0.80000",Alta,"14.1","8.9658","15371","51369",F:\AGROCERRADO\Faz Talisma Correntina\INPUT\20260401\M3E\DJI_202604011322_001_m2\DJI_20260401132956_0015_V.JPG,"0.000","18.0","0.0023","12.8422",NULL,,"0.0",RtkAlt,,"+162.20","0.03554","+0.10","1.0","53.4","202604011329",WGS-84,"0.01230",,"100.0",,M3E,m2,True,"0.0000000","55",,"0",1581F5FH82577002N061,"72.0",,"220","0.3066","-9.80",,"0.0",,"0.0","+985.986","0.0","+186.141",.JPG,"0.002","0.01175",2026-04-01T16:30:14.714264,"0.0","0.009","0.000","11.9366","0.0000000","90","50","12.95","99.9997","(600.8979, 450.2182)",,"2.97","9.6735","0.2","5280",11.09.08.24,"(0.24, 0.24, 2.8, 11.0)","12.29","2.97","-90.00","-4.6",,,"1","14.8314","2",Unknown,"(13.0, 40.0, 23.1371)","2","4.0","001","(45.0, 37.0, 48.8267)",DJI_202604011322_001_m2,
16,985.988,"20260401","001",m2,DJI_202604011322_001_m2,NULL,F:\AGROCERRADO\Faz Talisma Correntina\INPUT\20260401\M3E\DJI_202604011322_001_m2,"-18.00",False,Normal,"+0.00",MPO_RGB,RTK,M3E,"1329",,Fluorescent,"0.002","3956","75","0.0","99.7","0.000","0.0",2026:04:01 13:29:59,DJI_20260401132959_0016_V.JPG,"72.0",493ON344AB04YQ,"2.8","20260401","60.0","14.8314","1.20000",Alta,"14.1","8.9658","15371","51370",F:\AGROCERRADO\Faz Talisma Correntina\INPUT\20260401\M3E\DJI_202604011322_001_m2\DJI_20260401132959_0016_V.JPG,"0.000","18.0","0.0007","12.8425",NULL,,"0.0",RtkAlt,,"-17.80","0.03520","+0.90","1.0","53.4","202604011329",WGS-84,"0.01213",,"100.0",,M3E,m2,True,"0.0000000","55",,"0",1581F5FH82577002N061,"72.0",,"220","0.3066","-9.80",,"0.0",,"0.0","+985.988","0.0","+186.134",.JPG,"0.002","0.01166",2026-04-01T16:30:18.022489,"0.0","0.002","0.000","11.9366","0.0000000","90","50","12.99","99.98","(600.8991, 450.2191)",,"2.97","9.6736","0.2","5280",11.09.08.24,"(0.24, 0.24, 2.8, 11.0)","12.29","2.97","-89.90","-4.6",,,"1","14.8314","2",Unknown,"(13.0, 40.0, 21.6108)","2","3.0","001","(45.0, 37.0, 49.3367)",DJI_202604011322_001_m2,
17,986.003,"20260401","001",m2,DJI_202604011322_001_m2,NULL,F:\AGROCERRADO\Faz Talisma Correntina\INPUT\20260401\M3E\DJI_202604011322_001_m2,"-18.00",False,Normal,"+0.00",MPO_RGB,RTK,M3E,"1330",,Fluorescent,"0.015","3956","75","0.0","100.4","0.000","0.0",2026:04:01 13:30:02,DJI_20260401133002_0017_V.JPG,"72.0",493ON344AB04YQ,"2.8","20260401","0.0","14.8314","1.60000",Alta,"14.1","8.9658","15371","51371",F:\AGROCERRADO\Faz Talisma Correntina\INPUT\20260401\M3E\DJI_202604011322_001_m2\DJI_20260401133002_0017_V.JPG,"0.000","18.0","0.005","12.8428",NULL,,"0.0",RtkAlt,,"-17.80","0.03518","+0.00","1.0","53.4","202604011330",WGS-84,"0.01221",,"100.0",,M3E,m2,True,"0.0000000","55",,"0",1581F5FH82577002N061,"72.0",,"220","0.3066","-10.50",,"0.0",,"0.0","+986.003","0.0","+186.157",.JPG,"0.002","0.01166",2026-04-01T16:30:21.326615,"0.0","0.015","0.000","11.9366","0.0000000","90","50","12.91","99.998","(600.9083, 450.226)",,"2.97","9.6737","0.2","5280",11.09.08.24,"(0.24, 0.24, 2.8, 11.0)","12.29","2.97","-89.90","-4.6",,,"1","14.8314","2",Unknown,"(13.0, 40.0, 20.087)","2","3.0","001","(45.0, 37.0, 49.8458)",DJI_202604011322_001_m2,
18,985.985,"20260401","001",m2,DJI_202604011322_001_m2,NULL,F:\AGROCERRADO\Faz Talisma Correntina\INPUT\20260401\M3E\DJI_202604011322_001_m2,"-18.00",False,Normal,"+180.00",MPO_RGB,RTK,M3E,"1330",,Fluorescent,"0.018","3956","75","0.0","100.6","0.000","0.0",2026:04:01 13:30:05,DJI_20260401133005_0018_V.JPG,"72.0",493ON344AB04YQ,"2.8","20260401","59.9667","14.8314","0.80000",Alta,"14.1","8.9658","15371","51372",F:\AGROCERRADO\Faz Talisma Correntina\INPUT\20260401\M3E\DJI_202604011322_001_m2\DJI_20260401133005_0018_V.JPG,"0.000","18.0","0.006","12.843",NULL,,"0.0",RtkAlt,,"+162.10","0.03508","-0.50","1.0","53.4","202604011330",WGS-84,"0.01216",,"100.0",,M3E,m2,True,"0.0000000","55",,"0",1581F5FH82577002N061,"72.0",,"220","0.3066","-10.60",,"0.0",,"0.0","+985.985","0.0","+186.141",.JPG,"0.002","0.01163",2026-04-01T16:30:24.610722,"0.0","0.018","0.000","11.9366","0.0000000","90","50","12.95","99.994","(600.8973, 450.2177)",,"2.97","9.6735","0.1","5280",11.09.08.24,"(0.24, 0.24, 2.8, 11.0)","12.29","2.97","-90.00","-4.6",,,"1","14.8314","2",Unknown,"(13.0, 40.0, 18.5724)","2","3.0","001","(45.0, 37.0, 50.3521)",DJI_202604011322_001_m2,
19,985.985,"20260401","001",m2,DJI_202604011322_001_m2,NULL,F:\AGROCERRADO\Faz Talisma Correntina\INPUT\20260401\M3E\DJI_202604011322_001_m2,"-18.10",False,Normal,"+0.00",MPO_RGB,RTK,M3E,"1330",,Fluorescent,"0.0","3956","75","0.0","100.1","0.000","0.0032",2026:04:01 13:30:09,DJI_20260401133009_0019_V.JPG,"72.0",493ON344AB04YQ,"2.8","20260401","44.975","14.9265","1.20000",Alta,"14.2","8.9658","15371","51373",F:\AGROCERRADO\Faz Talisma Correntina\INPUT\20260401\M3E\DJI_202604011322_001_m2\DJI_20260401133009_0019_V.JPG,"0.000","18.1","0.0","12.8433",NULL,,"0.0",RtkAlt,,"-17.80","0.03487","+0.10","1.0","53.7","202604011330",WGS-84,"0.01205",,"100.0",,M3E,m2,True,"0.0000000","55",,"0",1581F5FH82577002N061,"72.0",,"220","0.3086","-10.20",,"0.0",,"0.0","+985.985","0.0","+186.138",.JPG,"0.002","0.01166",2026-04-01T16:30:27.944888,"0.0","0.0","0.000","11.9366","0.0000000","90","50","12.91","99.9903","(600.8973, 450.2177)",,"2.97","9.6735","0.3","5280",11.09.08.24,"(0.24, 0.24, 2.8, 11.0)","12.29","2.97","-89.90","-4.6",,,"1","14.9265","2",Unknown,"(13.0, 40.0, 17.0347)","2","4.0","001","(45.0, 37.0, 50.8685)",DJI_202604011322_001_m2,
20,985.984,"20260401","001",m2,DJI_202604011322_001_m2,NULL,F:\AGROCERRADO\Faz Talisma Correntina\INPUT\20260401\M3E\DJI_202604011322_001_m2,"-18.00",False,Normal,"+180.00",MPO_RGB,RTK,M3E,"1330",,Fluorescent,"0.001","3956","75","0.0","100.0","0.000","0.0032",2026:04:01 13:30:12,DJI_20260401133012_0020_V.JPG,"72.0",493ON344AB04YQ,"2.8","20260401","60.0","14.8314","1.40000",Alta,"14.1","8.9658","15371","51374",F:\AGROCERRADO\Faz Talisma Correntina\INPUT\20260401\M3E\DJI_202604011322_001_m2\DJI_20260401133012_0020_V.JPG,"0.000","18.0","0.0003","12.8435",NULL,,"0.0",RtkAlt,,"+162.20","0.03487","+0.50","1.0","53.4","202604011330",WGS-84,"0.01204",,"100.0",,M3E,m2,True,"0.0000000","55",,"0",1581F5FH82577002N061,"72.0",,"220","0.3066","-10.00",,"0.0",,"0.0","+985.984","0.0","+186.129",.JPG,"0.002","0.01156",2026-04-01T16:30:31.198509,"0.0","0.001","0.000","11.9366","0.0000000","90","50","12.96","99.9963","(600.8967, 450.2173)",,"2.97","9.6735","0.2","5280",11.09.08.24,"(0.24, 0.24, 2.8, 11.0)","12.29","2.97","-90.00","-4.6",,,"1","14.8314","2",Unknown,"(13.0, 40.0, 15.5328)","2","3.0","001","(45.0, 37.0, 51.3713)",DJI_202604011322_001_m2,
21,985.99,"20260401","001",m2,DJI_202604011322_001_m2,NULL,F:\AGROCERRADO\Faz Talisma Correntina\INPUT\20260401\M3E\DJI_202604011322_001_m2,"-18.00",False,Normal,"+0.00",MPO_RGB,RTK,M3E,"1330",,Fluorescent,"0.006","3956","75","0.0","100.2","0.000","0.001",2026:04:01 13:30:15,DJI_20260401133015_0021_V.JPG,"72.0",493ON344AB04YQ,"2.8","20260401","59.9667","14.8007","1.60000",Alta,"14.1","8.9658","15371","51375",F:\AGROCERRADO\Faz Talisma Correntina\INPUT\20260401\M3E\DJI_202604011322_001_m2\DJI_20260401133015_0021_V.JPG,"0.000","18.0","0.002","12.8438",NULL,,"0.0",RtkAlt,,"-17.90","0.03493","-0.60","1.0","53.3","202604011330",WGS-84,"0.01205",,"100.0",,M3E,m2,True,"0.0000000","55",,"0",1581F5FH82577002N061,"72.0",,"220","0.306","-10.30",,"0.0",,"0.0","+985.990","0.0","+186.148",.JPG,"0.002","0.01161",2026-04-01T16:30:34.506269,"0.0","0.006","0.000","11.9366","0.0000000","90","50","13.01","99.996","(600.9003, 450.22)",,"2.97","9.6736","0.1","5280",11.09.08.24,"(0.24, 0.24, 2.8, 11.0)","12.29","2.97","-89.90","-4.5",,,"1","14.8007","2",Unknown,"(13.0, 40.0, 14.0074)","2","3.0","001","(45.0, 37.0, 51.8808)",DJI_202604011322_001_m2,
22,985.991,"20260401","001",m2,DJI_202604011322_001_m2,NULL,F:\AGROCERRADO\Faz Talisma Correntina\INPUT\20260401\M3E\DJI_202604011322_001_m2,"-18.00",False,Normal,"+0.00",MPO_RGB,RTK,M3E,"1330",,Fluorescent,"0.001","3956","75","0.0","99.8","0.000","0.0",2026:04:01 13:30:19,DJI_20260401133019_0022_V.JPG,"72.0",493ON344AB04YQ,"2.8","20260401","0.0","14.8007","1.00000",Alta,"14.1","8.9658","15371","51376",F:\AGROCERRADO\Faz Talisma Correntina\INPUT\20260401\M3E\DJI_202604011322_001_m2\DJI_20260401133019_0022_V.JPG,"0.000","18.0","0.0002","12.844",NULL,,"0.0",RtkAlt,,"-17.90","0.03545","-0.20","1.0","53.3","202604011330",WGS-84,"0.01216",,"100.0",,M3E,m2,True,"0.0000000","55",,"0",1581F5FH82577002N061,"72.0",,"220","0.306","-9.90",,"0.0",,"0.0","+985.991","0.0","+186.148",.JPG,"0.002","0.01170",2026-04-01T16:30:37.815852,"0.0","0.001","0.000","11.9366","0.0000000","90","50","13.04","99.976","(600.9009, 450.2205)",,"2.97","9.6736","0.1","5280",11.09.08.24,"(0.24, 0.24, 2.8, 11.0)","12.29","2.97","-89.90","-4.5",,,"1","14.8007","2",Unknown,"(13.0, 40.0, 12.4792)","2","4.0","001","(45.0, 37.0, 52.392)",DJI_202604011322_001_m2,
23,985.984,"20260401","001",m2,DJI_202604011322_001_m2,NULL,F:\AGROCERRADO\Faz Talisma Correntina\INPUT\20260401\M3E\DJI_202604011322_001_m2,"-18.00",False,Normal,"+180.00",MPO_RGB,RTK,M3E,"1330",,Daylight,"0.007","3956","75","0.0","99.6","0.000","0.0",2026:04:01 13:30:22,DJI_20260401133022_0023_V.JPG,"72.0",493ON344AB04YQ,"2.8","20260401","60.0","14.8007","1.20000",Alta,"14.1","8.9658","15371","51377",F:\AGROCERRADO\Faz Talisma Correntina\INPUT\20260401\M3E\DJI_202604011322_001_m2\DJI_20260401133022_0023_V.JPG,"0.000","18.0","0.0023","12.8442",NULL,,"0.0",RtkAlt,,"+162.10","0.03469","-0.40","1.0","53.3","202604011330",WGS-84,"0.01195",,"100.0",,M3E,m2,True,"0.0000000","55",,"0",1581F5FH82577002N061,"72.0",,"220","0.306","-9.60",,"0.0",,"0.0","+985.984","0.0","+186.134",.JPG,"0.002","0.01145",2026-04-01T16:30:41.119077,"0.0","0.007","0.000","11.9366","0.0000000","90","50","12.75","99.9593","(600.8967, 450.2173)",,"2.97","9.6735","0.1","5280",11.09.08.24,"(0.24, 0.24, 2.8, 11.0)","12.29","2.97","-90.00","-4.5",,,"1","14.8007","1",Unknown,"(13.0, 40.0, 10.9553)","2","3.0","001","(45.0, 37.0, 52.9012)",DJI_202604011322_001_m2,
24,986.001,"20260401","001",m2,DJI_202604011322_001_m2,NULL,F:\AGROCERRADO\Faz Talisma Correntina\INPUT\20260401\M3E\DJI_202604011322_001_m2,"-18.00",False,Normal,"+0.00",MPO_RGB,RTK,M3E,"1330",,Daylight,"0.017","3956","75","0.0","100.1","0.000","0.001",2026:04:01 13:30:25,DJI_20260401133025_0024_V.JPG,"72.0",493ON344AB04YQ,"2.8","20260401","60.0","14.8314","1.60000",Alta,"14.1","8.9658","15371","51378",F:\AGROCERRADO\Faz Talisma Correntina\INPUT\20260401\M3E\DJI_202604011322_001_m2\DJI_20260401133025_0024_V.JPG,"0.000","18.0","0.0057","12.8445",NULL,,"0.0",RtkAlt,,"-17.90","0.03481","-0.10","1.0","53.4","202604011330",WGS-84,"0.01201",,"100.0",,M3E,m2,True,"0.0000000","55",,"0",1581F5FH82577002N061,"72.0",,"190","0.3066","-10.20",,"0.0",,"0.0","+986.001","0.0","+186.151",.JPG,"0.002","0.01150",2026-04-01T16:30:44.423661,"0.0","0.017","0.000","11.9366","0.0000000","90","50","12.66","99.9923","(600.907, 450.225)",,"2.97","9.6737","0.1","5280",11.09.08.24,"(0.24, 0.24, 2.8, 11.0)","12.29","2.97","-89.90","-4.6",,,"1","14.8314","1",Unknown,"(13.0, 40.0, 9.4315)","2","3.0","001","(45.0, 37.0, 53.4113)",DJI_202604011322_001_m2,
25,985.982,"20260401","001",m2,DJI_202604011322_001_m2,NULL,F:\AGROCERRADO\Faz Talisma Correntina\INPUT\20260401\M3E\DJI_202604011322_001_m2,"-18.00",False,Normal,"+180.00",MPO_RGB,RTK,M3E,"1330",,Daylight,"0.019","3956","75","0.0","100.2","0.000","0.0022",2026:04:01 13:30:29,DJI_20260401133029_0025_V.JPG,"72.0",493ON344AB04YQ,"2.8","20260401","45.0","14.896","0.80000",Alta,"14.2","8.9658","15371","51379",F:\AGROCERRADO\Faz Talisma Correntina\INPUT\20260401\M3E\DJI_202604011322_001_m2\DJI_20260401133029_0025_V.JPG,"0.000","18.0","0.0048","12.8447",NULL,,"0.0",RtkAlt,,"+162.10","0.03471","+0.00","1.0","53.6","202604011330",WGS-84,"0.01198",,"100.0",,M3E,m2,True,"0.0000000","55",,"0",1581F5FH82577002N061,"72.0",,"190","0.308","-10.20",,"0.0",,"0.0","+985.982","0.0","+186.142",.JPG,"0.002","0.01153",2026-04-01T16:30:47.727334,"0.0","0.019","0.000","11.9366","0.0000000","90","50","12.8","99.9967","(600.8955, 450.2164)",,"2.97","9.6735","0.1","5280",11.09.08.24,"(0.24, 0.24, 2.8, 11.0)","12.29","2.97","-90.00","-4.5",,,"1","14.896","1",Unknown,"(13.0, 40.0, 7.908)","2","4.0","001","(45.0, 37.0, 53.9203)",DJI_202604011322_001_m2,
26,985.969,"20260401","001",m2,DJI_202604011322_001_m2,NULL,F:\AGROCERRADO\Faz Talisma Correntina\INPUT\20260401\M3E\DJI_202604011322_001_m2,"-18.00",False,Normal,"+0.00",MPO_RGB,RTK,M3E,"1330",,Daylight,"0.013","3956","75","0.0","99.3","0.000","0.0022",2026:04:01 13:30:32,DJI_20260401133032_0026_V.JPG,"72.0",493ON344AB04YQ,"2.8","20260401","60.0","14.8314","1.20000",Alta,"14.1","8.9658","15371","51380",F:\AGROCERRADO\Faz Talisma Correntina\INPUT\20260401\M3E\DJI_202604011322_001_m2\DJI_20260401133032_0026_V.JPG,"0.000","18.0","0.0043","12.845",NULL,,"0.0",RtkAlt,,"-17.90","0.03443","+0.40","1.0","53.4","202604011330",WGS-84,"0.01195",,"100.0",,M3E,m2,True,"0.0000000","55",,"0",1581F5FH82577002N061,"72.0",,"180","0.3066","-9.40",,"0.0",,"0.0","+985.969","0.0","+186.131",.JPG,"0.002","0.01139",2026-04-01T16:30:50.973659,"0.0","0.013","0.000","11.9366","0.0000000","90","50","13.18","99.985","(600.8875, 450.2104)",,"2.97","9.6734","0.1","5280",11.09.08.24,"(0.24, 0.24, 2.8, 11.0)","12.29","2.97","-89.90","-4.6",,,"1","14.8314","1",Unknown,"(13.0, 40.0, 6.4096)","2","3.0","001","(45.0, 37.0, 54.4208)",DJI_202604011322_001_m2,
27,985.978,"20260401","001",m2,DJI_202604011322_001_m2,NULL,F:\AGROCERRADO\Faz Talisma Correntina\INPUT\20260401\M3E\DJI_202604011322_001_m2,"-17.90",False,Normal,"+0.00",MPO_RGB,RTK,M3E,"1330",,Daylight,"0.009","3956","75","0.0","100.0","0.000","0.0022",2026:04:01 13:30:35,DJI_20260401133035_0027_V.JPG,"72.0",493ON344AB04YQ,"2.8","20260401","0.0","14.896","1.40000",Alta,"14.2","8.9658","15371","51381",F:\AGROCERRADO\Faz Talisma Correntina\INPUT\20260401\M3E\DJI_202604011322_001_m2\DJI_20260401133035_0027_V.JPG,"0.000","17.9","0.003","12.8453",NULL,,"0.0",RtkAlt,,"-17.90","0.03454","+0.00","1.0","53.6","202604011330",WGS-84,"0.01195",,"100.0",,M3E,m2,True,"0.0000000","55",,"0",1581F5FH82577002N061,"72.0",,"170","0.308","-10.10",,"0.0",,"0.0","+985.978","0.0","+186.127",.JPG,"0.002","0.01149",2026-04-01T16:30:54.285071,"0.0","0.009","0.000","11.9366","0.0000000","90","50","13.51","99.993","(600.893, 450.2145)",,"2.97","9.6735","0.0","5280",11.09.08.24,"(0.24, 0.24, 2.8, 11.0)","12.29","2.97","-89.90","-4.5",,,"1","14.896","1",Unknown,"(13.0, 40.0, 4.882)","2","3.0","001","(45.0, 37.0, 54.9325)",DJI_202604011322_001_m2,
28,985.982,"20260401","001",m2,DJI_202604011322_001_m2,NULL,F:\AGROCERRADO\Faz Talisma Correntina\INPUT\20260401\M3E\DJI_202604011322_001_m2,"-18.00",False,Normal,"+180.00",MPO_RGB,RTK,M3E,"1330",,Daylight,"0.004","3956","75","0.0","100.0","0.000","0.0032",2026:04:01 13:30:38,DJI_20260401133038_0028_V.JPG,"72.0",493ON344AB04YQ,"2.8","20260401","59.9667","14.8007","0.80000",Alta,"14.1","8.9658","15371","51382",F:\AGROCERRADO\Faz Talisma Correntina\INPUT\20260401\M3E\DJI_202604011322_001_m2\DJI_20260401133038_0028_V.JPG,"0.000","18.0","0.0013","12.8455",NULL,,"0.0",RtkAlt,,"+162.20","0.03437","+0.40","1.0","53.3","202604011330",WGS-84,"0.01188",,"100.0",,M3E,m2,True,"0.0000000","55",,"0",1581F5FH82577002N061,"72.0",,"170","0.306","-10.00",,"0.0",,"0.0","+985.982","0.0","+186.145",.JPG,"0.002","0.01140",2026-04-01T16:30:57.570996,"0.0","0.004","0.000","11.9366","0.0000000","90","50","13.63","99.989","(600.8955, 450.2164)",,"2.97","9.6735","0.2","5280",11.09.08.24,"(0.24, 0.24, 2.8, 11.0)","12.29","2.97","-90.00","-4.5",,,"1","14.8007","1",Unknown,"(13.0, 40.0, 3.3669)","2","3.0","001","(45.0, 37.0, 55.4392)",DJI_202604011322_001_m2,
29,985.976,"20260401","001",m2,DJI_202604011322_001_m2,NULL,F:\AGROCERRADO\Faz Talisma Correntina\INPUT\20260401\M3E\DJI_202604011322_001_m2,"-18.00",False,Normal,"+0.00",MPO_RGB,RTK,M3E,"1330",,Daylight,"0.006","3956","75","0.0","100.5","0.000","0.001",2026:04:01 13:30:42,DJI_20260401133042_0029_V.JPG,"72.0",493ON344AB04YQ,"2.8","20260401","45.0","14.8314","1.00000",Alta,"14.1","8.9658","15371","51383",F:\AGROCERRADO\Faz Talisma Correntina\INPUT\20260401\M3E\DJI_202604011322_001_m2\DJI_20260401133042_0029_V.JPG,"0.000","18.0","0.0015","12.8458",NULL,,"0.0",RtkAlt,,"-17.80","0.03452","+0.00","1.0","53.4","202604011330",WGS-84,"0.01196",,"100.0",,M3E,m2,True,"0.0000000","55",,"0",1581F5FH82577002N061,"72.0",,"170","0.3066","-10.60",,"0.0",,"0.0","+985.976","0.0","+186.133",.JPG,"0.002","0.01145",2026-04-01T16:31:00.883763,"0.0","0.006","0.000","11.9366","0.0000000","90","50","13.65","99.9907","(600.8918, 450.2136)",,"2.97","9.6734","0.2","5280",11.09.08.24,"(0.24, 0.24, 2.8, 11.0)","12.29","2.97","-89.90","-4.6",,,"1","14.8314","1",Unknown,"(13.0, 40.0, 1.8376)","2","4.0","001","(45.0, 37.0, 55.9504)",DJI_202604011322_001_m2,
30,985.99,"20260401","001",m2,DJI_202604011322_001_m2,NULL,F:\AGROCERRADO\Faz Talisma Correntina\INPUT\20260401\M3E\DJI_202604011322_001_m2,"-18.00",False,Normal,"+180.00",MPO_RGB,RTK,M3E,"1330",,Daylight,"0.014","3956","75","0.0","100.3","0.000","0.0032",2026:04:01 13:30:45,DJI_20260401133045_0030_V.JPG,"72.0",493ON344AB04YQ,"2.8","20260401","59.9667","14.9265","1.40000",Alta,"14.2","8.9658","15371","51384",F:\AGROCERRADO\Faz Talisma Correntina\INPUT\20260401\M3E\DJI_202604011322_001_m2\DJI_20260401133045_0030_V.JPG,"0.000","18.0","0.0047","12.846",NULL,,"0.0",RtkAlt,,"+162.10","0.03488","+0.50","1.0","53.7","202604011330",WGS-84,"0.01190",,"100.0",,M3E,m2,True,"0.0000000","55",,"0",1581F5FH82577002N061,"72.0",,"170","0.3086","-10.30",,"0.0",,"0.0","+985.990","0.0","+186.128",.JPG,"0.002","0.01147",2026-04-01T16:31:04.180625,"0.0","0.014","0.000","11.9366","0.0000000","90","50","13.44","99.9893","(600.9003, 450.22)",,"2.97","9.6736","0.1","5280",11.09.08.24,"(0.24, 0.24, 2.8, 11.0)","12.29","2.97","-90.00","-4.6",,,"1","14.9265","1",Unknown,"(13.0, 40.0, 0.3159)","2","3.0","001","(45.0, 37.0, 56.4593)",DJI_202604011322_001_m2,
31,985.985,"20260401","001",m2,DJI_202604011322_001_m2,NULL,F:\AGROCERRADO\Faz Talisma Correntina\INPUT\20260401\M3E\DJI_202604011322_001_m2,"-18.00",False,Normal,"+0.00",MPO_RGB,RTK,M3E,"1330",,Daylight,"0.005","3956","75","0.0","99.8","0.000","0.0032",2026:04:01 13:30:48,DJI_20260401133048_0031_V.JPG,"72.0",493ON344AB04YQ,"2.8","20260401","59.9667","14.8314","1.60000",Alta,"14.1","8.9658","15371","51385",F:\AGROCERRADO\Faz Talisma Correntina\INPUT\20260401\M3E\DJI_202604011322_001_m2\DJI_20260401133048_0031_V.JPG,"0.000","18.0","0.0017","12.8463",NULL,,"0.0",RtkAlt,,"-17.80","0.03528","+0.50","1.0","53.4","202604011330",WGS-84,"0.01195",,"100.0",,M3E,m2,True,"0.0000000","55",,"0",1581F5FH82577002N061,"72.0",,"160","0.3066","-9.90",,"0.0",,"0.0","+985.985","0.0","+186.131",.JPG,"0.002","0.01146",2026-04-01T16:31:07.453347,"0.0","0.005","0.000","11.9366","0.0000000","90","50","13.42","99.9853","(600.8973, 450.2177)",,"2.97","9.6735","0.2","5280",11.09.08.24,"(0.24, 0.24, 2.8, 11.0)","12.29","2.97","-89.90","-4.6",,,"1","14.8314","1",Unknown,"(13.0, 39.0, 58.8047)","2","3.0","001","(45.0, 37.0, 56.964)",DJI_202604011322_001_m2,
32,985.968,"20260401","001",m2,DJI_202604011322_001_m2,NULL,F:\AGROCERRADO\Faz Talisma Correntina\INPUT\20260401\M3E\DJI_202604011322_001_m2,"-18.00",False,Normal,"+0.00",MPO_RGB,RTK,M3E,"1330",,Daylight,"0.017","3956","75","0.0","100.3","0.000","0.0",2026:04:01 13:30:52,DJI_20260401133052_0032_V.JPG,"72.0",493ON344AB04YQ,"2.8","20260401","0.0","14.8314","1.00000",Alta,"14.1","8.9658","15371","51386",F:\AGROCERRADO\Faz Talisma Correntina\INPUT\20260401\M3E\DJI_202604011322_001_m2\DJI_20260401133052_0032_V.JPG,"0.000","18.0","0.0043","12.8465",NULL,,"0.0",RtkAlt,,"-17.80","0.03455","+0.30","1.0","53.4","202604011330",WGS-84,"0.01193",,"100.0",,M3E,m2,True,"0.0000000","55",,"0",1581F5FH82577002N061,"72.0",,"170","0.3066","-10.40",,"0.0",,"0.0","+985.968","0.0","+186.136",.JPG,"0.002","0.01140",2026-04-01T16:31:10.757019,"0.0","0.017","0.000","11.9366","0.0000000","90","50","13.57","99.973","(600.8869, 450.21)",,"2.97","9.6734","0.2","5280",11.09.08.24,"(0.24, 0.24, 2.8, 11.0)","12.29","2.97","-89.90","-4.6",,,"1","14.8314","1",Unknown,"(13.0, 39.0, 57.2817)","2","4.0","001","(45.0, 37.0, 57.4731)",DJI_202604011322_001_m2,
33,985.973,"20260401","001",m2,DJI_202604011322_001_m2,NULL,F:\AGROCERRADO\Faz Talisma Correntina\INPUT\20260401\M3E\DJI_202604011322_001_m2,"-18.00",False,Normal,"+180.00",MPO_RGB,RTK,M3E,"1330",,Daylight,"0.005","3956","75","0.0","100.5","0.000","0.0",2026:04:01 13:30:55,DJI_20260401133055_0033_V.JPG,"72.0",493ON344AB04YQ,"2.8","20260401","60.0","14.8314","1.20000",Alta,"14.1","8.9658","15371","51387",F:\AGROCERRADO\Faz Talisma Correntina\INPUT\20260401\M3E\DJI_202604011322_001_m2\DJI_20260401133055_0033_V.JPG,"0.000","18.0","0.0017","12.8468",NULL,,"0.0",RtkAlt,,"+162.20","0.03419","+0.80","1.0","53.4","202604011330",WGS-84,"0.01174",,"100.0",,M3E,m2,True,"0.0000000","55",,"0",1581F5FH82577002N061,"72.0",,"170","0.3066","-10.50",,"0.0",,"0.0","+985.973","0.0","+186.123",.JPG,"0.002","0.01130",2026-04-01T16:31:14.044754,"0.0","0.005","0.000","11.9366","0.0000000","90","50","13.65","99.9783","(600.89, 450.2123)",,"2.97","9.6734","0.2","5280",11.09.08.24,"(0.24, 0.24, 2.8, 11.0)","12.29","2.97","-90.00","-4.6",,,"1","14.8314","1",Unknown,"(13.0, 39.0, 55.7664)","2","3.0","001","(45.0, 37.0, 57.9801)",DJI_202604011322_001_m2,
34,985.997,"20260401","001",m2,DJI_202604011322_001_m2,NULL,F:\AGROCERRADO\Faz Talisma Correntina\INPUT\20260401\M3E\DJI_202604011322_001_m2,"-18.00",False,Normal,"+0.00",MPO_RGB,RTK,M3E,"1330",,Daylight,"0.024","3956","75","0.0","100.7","0.000","0.0032",2026:04:01 13:30:58,DJI_20260401133058_0034_V.JPG,"72.0",493ON344AB04YQ,"2.8","20260401","60.0","14.9265","1.60000",Alta,"14.2","8.9658","15371","51388",F:\AGROCERRADO\Faz Talisma Correntina\INPUT\20260401\M3E\DJI_202604011322_001_m2\DJI_20260401133058_0034_V.JPG,"0.000","18.0","0.008","12.847",NULL,,"0.0",RtkAlt,,"-17.80","0.03441","+0.30","1.0","53.7","202604011330",WGS-84,"0.01184",,"100.0",,M3E,m2,True,"0.0000000","55",,"0",1581F5FH82577002N061,"72.0",,"170","0.3086","-10.80",,"0.0",,"0.0","+985.997","0.0","+186.150",.JPG,"0.002","0.01138",2026-04-01T16:31:17.355715,"0.0","0.024","0.000","11.9366","0.0000000","90","50","13.83","99.9867","(600.9046, 450.2232)",,"2.97","9.6737","0.2","5280",11.09.08.24,"(0.24, 0.24, 2.8, 11.0)","12.29","2.97","-89.90","-4.6",,,"1","14.9265","1",Unknown,"(13.0, 39.0, 54.2393)","2","3.0","001","(45.0, 37.0, 58.4901)",DJI_202604011322_001_m2,
35,985.991,"20260401","001",m2,DJI_202604011322_001_m2,NULL,F:\AGROCERRADO\Faz Talisma Correntina\INPUT\20260401\M3E\DJI_202604011322_001_m2,"-18.00",False,Normal,"+180.00",MPO_RGB,RTK,M3E,"1331",,Daylight,"0.006","3956","75","0.0","100.6","0.000","0.0",2026:04:01 13:31:02,DJI_20260401133102_0035_V.JPG,"72.0",493ON344AB04YQ,"2.8","20260401","45.0","14.9265","0.80000",Alta,"14.2","8.9658","15371","51389",F:\AGROCERRADO\Faz Talisma Correntina\INPUT\20260401\M3E\DJI_202604011322_001_m2\DJI_20260401133102_0035_V.JPG,"0.000","18.0","0.0015","12.8472",NULL,,"0.0",RtkAlt,,"+162.20","0.03428","+0.10","1.0","53.7","202604011331",WGS-84,"0.01181",,"100.0",,M3E,m2,True,"0.0000000","55",,"0",1581F5FH82577002N061,"72.0",,"180","0.3086","-10.60",,"0.0",,"0.0","+985.991","0.0","+186.139",.JPG,"0.002","0.01133",2026-04-01T16:31:20.647556,"0.0","0.006","0.000","11.9366","0.0000000","90","50","13.99","99.993","(600.9009, 450.2205)",,"2.97","9.6736","0.2","5280",11.09.08.24,"(0.24, 0.24, 2.8, 11.0)","12.29","2.97","-90.00","-4.6",,,"1","14.9265","1",Unknown,"(13.0, 39.0, 52.7195)","2","4.0","001","(45.0, 37.0, 58.9983)",DJI_202604011322_001_m2,
36,985.979,"20260401","001",m2,DJI_202604011322_001_m2,NULL,F:\AGROCERRADO\Faz Talisma Correntina\INPUT\20260401\M3E\DJI_202604011322_001_m2,"-18.00",False,Normal,"+180.00",MPO_RGB,RTK,M3E,"1331",,Daylight,"0.012","3956","75","0.0","100.7","0.000","0.0",2026:04:01 13:31:05,DJI_20260401133105_0036_V.JPG,"72.0",493ON344AB04YQ,"2.8","20260401","0.0333","14.9265","1.20000",Alta,"14.2","8.9658","15371","51390",F:\AGROCERRADO\Faz Talisma Correntina\INPUT\20260401\M3E\DJI_202604011322_001_m2\DJI_20260401133105_0036_V.JPG,"0.000","18.0","0.004","12.8475",NULL,,"0.0",RtkAlt,,"+162.10","0.03403","-0.20","1.0","53.7","202604011331",WGS-84,"0.01166",,"100.0",,M3E,m2,True,"0.0000000","55",,"0",1581F5FH82577002N061,"72.0",,"180","0.3086","-10.70",,"0.0",,"0.0","+985.979","0.0","+186.138",.JPG,"0.002","0.01115",2026-04-01T16:31:23.937122,"0.0","0.012","0.000","11.9366","0.0000000","90","50","14.0","99.9807","(600.8936, 450.215)",,"2.97","9.6735","0.1","5280",11.09.08.24,"(0.24, 0.24, 2.8, 11.0)","12.29","2.97","-90.00","-4.6",,,"1","14.9265","1",Unknown,"(13.0, 39.0, 51.201)","2","3.0","001","(45.0, 37.0, 59.5062)",DJI_202604011322_001_m2,
37,986.005,"20260401","001",m2,DJI_202604011322_001_m2,NULL,F:\AGROCERRADO\Faz Talisma Correntina\INPUT\20260401\M3E\DJI_202604011322_001_m2,"-18.00",False,Normal,"+0.00",MPO_RGB,RTK,M3E,"1331",,Daylight,"0.026","3956","75","0.0","100.2","0.000","0.0042",2026:04:01 13:31:08,DJI_20260401133108_0037_V.JPG,"72.0",493ON344AB04YQ,"2.8","20260401","59.9667","14.8007","1.40000",Alta,"14.1","8.9658","15371","51391",F:\AGROCERRADO\Faz Talisma Correntina\INPUT\20260401\M3E\DJI_202604011322_001_m2\DJI_20260401133108_0037_V.JPG,"0.000","18.0","0.0087","12.8477",NULL,,"0.0",RtkAlt,,"-17.80","0.03427","+0.50","1.0","53.3","202604011331",WGS-84,"0.01180",,"100.0",,M3E,m2,True,"0.0000000","55",,"0",1581F5FH82577002N061,"72.0",,"170","0.306","-10.30",,"0.0",,"0.0","+986.005","0.0","+186.162",.JPG,"0.002","0.01131",2026-04-01T16:31:27.259909,"0.0","0.026","0.000","11.9366","0.0000000","90","50","14.05","99.982","(600.9095, 450.2269)",,"2.97","9.6737","0.2","5280",11.09.08.24,"(0.24, 0.24, 2.8, 11.0)","12.29","2.97","-89.90","-4.5",,,"1","14.8007","1",Unknown,"(13.0, 39.0, 49.6678)","2","3.0","001","(45.0, 38.0, 0.0206)",DJI_202604011322_001_m2,
38,985.989,"20260401","001",m2,DJI_202604011322_001_m2,NULL,F:\AGROCERRADO\Faz Talisma Correntina\INPUT\20260401\M3E\DJI_202604011322_001_m2,"-18.00",False,Normal,"+0.00",MPO_RGB,RTK,M3E,"1331",,Daylight,"0.016","3956","75","0.0","100.2","0.000","0.0032",2026:04:01 13:31:11,DJI_20260401133111_0038_V.JPG,"72.0",493ON344AB04YQ,"2.8","20260401","0.0","14.896","0.80000",Alta,"14.2","8.9658","15371","51392",F:\AGROCERRADO\Faz Talisma Correntina\INPUT\20260401\M3E\DJI_202604011322_001_m2\DJI_20260401133111_0038_V.JPG,"0.000","18.0","0.0053","12.848",NULL,,"0.0",RtkAlt,,"-17.80","0.03410","+1.00","1.0","53.6","202604011331",WGS-84,"0.01178",,"100.0",,M3E,m2,True,"0.0000000","55",,"0",1581F5FH82577002N061,"72.0",,"180","0.308","-10.30",,"0.0",,"0.0","+985.989","0.0","+186.141",.JPG,"0.002","0.01126",2026-04-01T16:31:30.554933,"0.0","0.016","0.000","11.9366","0.0000000","90","50","14.03","99.992","(600.8997, 450.2196)",,"2.97","9.6736","0.2","5280",11.09.08.24,"(0.24, 0.24, 2.8, 11.0)","12.29","2.97","-89.90","-4.5",,,"1","14.896","1",Unknown,"(13.0, 39.0, 48.1479)","2","3.0","001","(45.0, 38.0, 0.529)",DJI_202604011322_001_m2,
39,985.97,"20260401","001",m2,DJI_202604011322_001_m2,NULL,F:\AGROCERRADO\Faz Talisma Correntina\INPUT\20260401\M3E\DJI_202604011322_001_m2,"-18.00",False,Normal,"+0.00",MPO_RGB,RTK,M3E,"1331",,Daylight,"0.019","3956","75","0.0","100.4","0.000","0.0",2026:04:01 13:31:15,DJI_20260401133115_0039_V.JPG,"72.0",493ON344AB04YQ,"2.8","20260401","0.0","14.896","1.00000",Alta,"14.2","8.9658","15371","51393",F:\AGROCERRADO\Faz Talisma Correntina\INPUT\20260401\M3E\DJI_202604011322_001_m2\DJI_20260401133115_0039_V.JPG,"0.000","18.0","0.0048","12.8483",NULL,,"0.0",RtkAlt,,"-17.80","0.03412","+0.60","1.0","53.6","202604011331",WGS-84,"0.01174",,"100.0",,M3E,m2,True,"0.0000000","55",,"0",1581F5FH82577002N061,"72.0",,"170","0.308","-10.50",,"0.0",,"0.0","+985.970","0.0","+186.130",.JPG,"0.002","0.01130",2026-04-01T16:31:33.859071,"0.0","0.019","0.000","11.9366","0.0000000","90","50","14.09","99.9993","(600.8881, 450.2109)",,"2.97","9.6734","0.2","5280",11.09.08.24,"(0.24, 0.24, 2.8, 11.0)","12.29","2.97","-89.90","-4.5",,,"1","14.896","1",Unknown,"(13.0, 39.0, 46.6236)","2","4.0","001","(45.0, 38.0, 1.039)",DJI_202604011322_001_m2,
40,985.989,"20260401","001",m2,DJI_202604011322_001_m2,NULL,F:\AGROCERRADO\Faz Talisma Correntina\INPUT\20260401\M3E\DJI_202604011322_001_m2,"-18.00",False,Normal,"+180.00",MPO_RGB,RTK,M3E,"1331",,Daylight,"0.019","3956","75","0.0","100.2","0.000","0.0",2026:04:01 13:31:18,DJI_20260401133118_0040_V.JPG,"72.0",493ON344AB04YQ,"2.8","20260401","60.0","14.896","1.40000",Alta,"14.2","8.9658","15371","51394",F:\AGROCERRADO\Faz Talisma Correntina\INPUT\20260401\M3E\DJI_202604011322_001_m2\DJI_20260401133118_0040_V.JPG,"0.000","18.0","0.0063","12.8485",NULL,,"0.0",RtkAlt,,"+162.20","0.03444","+0.50","1.0","53.6","202604011331",WGS-84,"0.01170",,"100.0",,M3E,m2,True,"0.0000000","55",,"0",1581F5FH82577002N061,"72.0",,"180","0.308","-10.20",,"0.0",,"0.0","+985.989","0.0","+186.146",.JPG,"0.002","0.01126",2026-04-01T16:31:37.144991,"0.0","0.019","0.000","11.9366","0.0000000","90","50","14.23","99.992","(600.8997, 450.2196)",,"2.97","9.6736","0.2","5280",11.09.08.24,"(0.24, 0.24, 2.8, 11.0)","12.29","2.97","-90.00","-4.5",,,"1","14.896","1",Unknown,"(13.0, 39.0, 45.1069)","2","3.0","001","(45.0, 38.0, 1.546)",DJI_202604011322_001_m2,
41,985.99,"20260401","001",m2,DJI_202604011322_001_m2,NULL,F:\AGROCERRADO\Faz Talisma Correntina\INPUT\20260401\M3E\DJI_202604011322_001_m2,"-18.00",False,Normal,"+180.00",MPO_RGB,RTK,M3E,"1331",,Daylight,"0.001","3956","75","0.0","100.2","0.000","0.0022",2026:04:01 13:31:21,DJI_20260401133121_0041_V.JPG,"72.0",493ON344AB04YQ,"2.8","20260401","0.0","14.8314","1.60000",Alta,"14.1","8.9658","15371","51395",F:\AGROCERRADO\Faz Talisma Correntina\INPUT\20260401\M3E\DJI_202604011322_001_m2\DJI_20260401133121_0041_V.JPG,"0.000","18.0","0.0003","12.8488",NULL,,"0.0",RtkAlt,,"+162.20","0.03433","+0.40","1.0","53.4","202604011331",WGS-84,"0.01189",,"100.0",,M3E,m2,True,"0.0000000","55",,"0",1581F5FH82577002N061,"72.0",,"180","0.3066","-10.20",,"0.0",,"0.0","+985.990","0.0","+186.130",.JPG,"0.002","0.01133",2026-04-01T16:31:40.417261,"0.0","0.001","0.000","11.9366","0.0000000","90","50","14.47","99.995","(600.9003, 450.22)",,"2.97","9.6736","0.2","5280",11.09.08.24,"(0.24, 0.24, 2.8, 11.0)","12.29","2.97","-90.00","-4.6",,,"1","14.8314","1",Unknown,"(13.0, 39.0, 43.5966)","2","3.0","001","(45.0, 38.0, 2.0498)",DJI_202604011322_001_m2,
42,985.974,"20260401","001",m2,DJI_202604011322_001_m2,NULL,F:\AGROCERRADO\Faz Talisma Correntina\INPUT\20260401\M3E\DJI_202604011322_001_m2,"-18.00",False,Normal,"+180.00",MPO_RGB,RTK,M3E,"1331",,Daylight,"0.016","3956","75","0.0","100.0","0.000","0.001",2026:04:01 13:31:25,DJI_20260401133125_0042_V.JPG,"72.0",493ON344AB04YQ,"2.8","20260401","0.0","14.8007","0.80000",Alta,"14.1","8.9658","15371","51396",F:\AGROCERRADO\Faz Talisma Correntina\INPUT\20260401\M3E\DJI_202604011322_001_m2\DJI_20260401133125_0042_V.JPG,"0.000","18.0","0.004","12.849",NULL,,"0.0",RtkAlt,,"+162.20","0.03420","+0.60","1.0","53.3","202604011331",WGS-84,"0.01175",,"100.0",,M3E,m2,True,"0.0000000","55",,"0",1581F5FH82577002N061,"72.0",,"180","0.306","-10.00",,"0.0",,"0.0","+985.974","0.0","+186.137",.JPG,"0.002","0.01124",2026-04-01T16:31:43.716836,"0.0","0.016","0.000","11.9366","0.0000000","90","50","14.87","99.988","(600.8906, 450.2127)",,"2.97","9.6734","0.2","5280",11.09.08.24,"(0.24, 0.24, 2.8, 11.0)","12.29","2.97","-90.00","-4.5",,,"1","14.8007","1",Unknown,"(13.0, 39.0, 42.0739)","2","4.0","001","(45.0, 38.0, 2.5587)",DJI_202604011322_001_m2,
43,985.983,"20260401","001",m2,DJI_202604011322_001_m2,NULL,F:\AGROCERRADO\Faz Talisma Correntina\INPUT\20260401\M3E\DJI_202604011322_001_m2,"-18.00",False,Normal,"+180.00",MPO_RGB,RTK,M3E,"1331",,Daylight,"0.009","3956","75","0.0","99.9","0.000","0.0042",2026:04:01 13:31:28,DJI_20260401133128_0043_V.JPG,"72.0",493ON344AB04YQ,"2.8","20260401","0.0","14.9265","1.20000",Alta,"14.2","8.9658","15371","51397",F:\AGROCERRADO\Faz Talisma Correntina\INPUT\20260401\M3E\DJI_202604011322_001_m2\DJI_20260401133128_0043_V.JPG,"0.000","18.0","0.003","12.8493",NULL,,"0.0",RtkAlt,,"+162.20","0.03431","+0.40","1.0","53.7","202604011331",WGS-84,"0.01163",,"100.0",,M3E,m2,True,"0.0000000","55",,"0",1581F5FH82577002N061,"72.0",,"180","0.3086","-9.90",,"0.0",,"0.0","+985.983","0.0","+186.139",.JPG,"0.002","0.01114",2026-04-01T16:31:47.023240,"0.0","0.009","0.000","11.9366","0.0000000","90","50","15.14","99.9963","(600.8961, 450.2168)",,"2.97","9.6735","0.2","5280",11.09.08.24,"(0.24, 0.24, 2.8, 11.0)","12.29","2.97","-90.00","-4.6",,,"1","14.9265","1",Unknown,"(13.0, 39.0, 40.5487)","2","3.0","001","(45.0, 38.0, 3.0682)",DJI_202604011322_001_m2,
44,985.979,"20260401","001",m2,DJI_202604011322_001_m2,NULL,F:\AGROCERRADO\Faz Talisma Correntina\INPUT\20260401\M3E\DJI_202604011322_001_m2,"-18.00",False,Normal,"+180.00",MPO_RGB,RTK,M3E,"1331",,Daylight,"0.004","3956","75","0.0","99.9","0.000","0.0032",2026:04:01 13:31:31,DJI_20260401133131_0044_V.JPG,"72.0",493ON344AB04YQ,"2.8","20260401","0.0333","14.8314","1.40000",Alta,"14.1","8.9658","15371","51398",F:\AGROCERRADO\Faz Talisma Correntina\INPUT\20260401\M3E\DJI_202604011322_001_m2\DJI_20260401133131_0044_V.JPG,"0.000","18.0","0.0013","12.8495",NULL,,"0.0",RtkAlt,,"+162.10","0.03452","+0.10","1.0","53.4","202604011331",WGS-84,"0.01170",,"100.0",,M3E,m2,True,"0.0000000","55",,"0",1581F5FH82577002N061,"72.0",,"200","0.3066","-9.90",,"0.0",,"0.0","+985.979","0.0","+186.127",.JPG,"0.002","0.01121",2026-04-01T16:31:50.303247,"0.0","0.004","0.000","11.9366","0.0000000","90","50","15.12","99.9883","(600.8936, 450.215)",,"2.97","9.6735","0.1","5280",11.09.08.24,"(0.24, 0.24, 2.8, 11.0)","12.29","2.97","-90.00","-4.6",,,"1","14.8314","1",Unknown,"(13.0, 39.0, 39.0349)","2","3.0","001","(45.0, 38.0, 3.5736)",DJI_202604011322_001_m2,
45,985.992,"20260401","001",m2,DJI_202604011322_001_m2,NULL,F:\AGROCERRADO\Faz Talisma Correntina\INPUT\20260401\M3E\DJI_202604011322_001_m2,"-18.00",False,Normal,"+180.00",MPO_RGB,RTK,M3E,"1331",,Daylight,"0.013","3956","75","0.0","100.3","0.000","0.0032",2026:04:01 13:31:34,DJI_20260401133134_0045_V.JPG,"72.0",493ON344AB04YQ,"2.8","20260401","0.0333","14.9265","0.80000",Alta,"14.2","8.9658","15371","51399",F:\AGROCERRADO\Faz Talisma Correntina\INPUT\20260401\M3E\DJI_202604011322_001_m2\DJI_20260401133134_0045_V.JPG,"0.000","18.0","0.0043","12.8497",NULL,,"0.0",RtkAlt,,"+162.20","0.03453","+0.40","1.0","53.7","202604011331",WGS-84,"0.01171",,"100.0",,M3E,m2,True,"0.0000000","55",,"0",1581F5FH82577002N061,"72.0",,"200","0.3086","-10.30",,"0.0",,"0.0","+985.992","0.0","+186.136",.JPG,"0.002","0.01123",2026-04-01T16:31:53.618750,"0.0","0.013","0.000","11.9366","0.0000000","90","50","14.79","99.9987","(600.9016, 450.2209)",,"2.97","9.6736","0.2","5280",11.09.08.24,"(0.24, 0.24, 2.8, 11.0)","12.29","2.97","-90.00","-4.6",,,"1","14.9265","1",Unknown,"(13.0, 39.0, 37.5068)","2","3.0","001","(45.0, 38.0, 4.0857)",DJI_202604011322_001_m2,
46,985.983,"20260401","001",m2,DJI_202604011322_001_m2,NULL,F:\AGROCERRADO\Faz Talisma Correntina\INPUT\20260401\M3E\DJI_202604011322_001_m2,"-18.00",False,Normal,"+180.00",MPO_RGB,RTK,M3E,"1331",,Daylight,"0.009","3956","75","0.0","99.5","0.000","0.0032",2026:04:01 13:31:38,DJI_20260401133138_0046_V.JPG,"72.0",493ON344AB04YQ,"2.8","20260401","0.0","14.8314","1.00000",Alta,"14.1","8.9658","15371","51400",F:\AGROCERRADO\Faz Talisma Correntina\INPUT\20260401\M3E\DJI_202604011322_001_m2\DJI_20260401133138_0046_V.JPG,"0.000","18.0","0.0023","12.85",NULL,,"0.0",RtkAlt,,"+162.20","0.03437","+1.20","1.0","53.4","202604011331",WGS-84,"0.01159",,"100.0",,M3E,m2,True,"0.0000000","55",,"0",1581F5FH82577002N061,"72.0",,"210","0.3066","-9.50",,"0.0",,"0.0","+985.983","0.0","+186.142",.JPG,"0.002","0.01114",2026-04-01T16:31:56.901037,"0.0","0.009","0.000","11.9366","0.0000000","90","50","14.35","99.9877","(600.8961, 450.2168)",,"2.97","9.6735","0.2","5280",11.09.08.24,"(0.24, 0.24, 2.8, 11.0)","12.29","2.97","-90.00","-4.6",,,"1","14.8314","1",Unknown,"(13.0, 39.0, 35.991)","2","4.0","001","(45.0, 38.0, 4.5916)",DJI_202604011322_001_m2,
47,985.995,"20260401","001",m2,DJI_202604011322_001_m2,NULL,F:\AGROCERRADO\Faz Talisma Correntina\INPUT\20260401\M3E\DJI_202604011322_001_m2,"-18.10",False,Normal,"+0.00",MPO_RGB,RTK,M3E,"1331",,Daylight,"0.012","3956","75","0.0","99.3","0.000","0.0032",2026:04:01 13:31:41,DJI_20260401133141_0047_V.JPG,"72.0",493ON344AB04YQ,"2.8","20260401","60.0","14.9265","1.40000",Alta,"14.2","8.9658","15371","51401",F:\AGROCERRADO\Faz Talisma Correntina\INPUT\20260401\M3E\DJI_202604011322_001_m2\DJI_20260401133141_0047_V.JPG,"0.000","18.1","0.004","12.8502",NULL,,"0.0",RtkAlt,,"-17.80","0.03523","+1.00","1.0","53.7","202604011331",WGS-84,"0.01160",,"100.0",,M3E,m2,True,"0.0000000","55",,"0",1581F5FH82577002N061,"72.0",,"200","0.3086","-9.40",,"0.0",,"0.0","+985.995","0.0","+186.152",.JPG,"0.002","0.01122",2026-04-01T16:32:00.201525,"0.0","0.012","0.000","11.9366","0.0000000","90","50","13.76","99.9683","(600.9034, 450.2223)",,"2.97","9.6736","0.3","5280",11.09.08.24,"(0.24, 0.24, 2.8, 11.0)","12.29","2.97","-89.90","-4.6",,,"1","14.9265","1",Unknown,"(13.0, 39.0, 34.469)","2","3.0","001","(45.0, 38.0, 5.1008)",DJI_202604011322_001_m2,
48,985.989,"20260401","001",m2,DJI_202604011322_001_m2,NULL,F:\AGROCERRADO\Faz Talisma Correntina\INPUT\20260401\M3E\DJI_202604011322_001_m2,"-18.00",False,Normal,"+0.00",MPO_RGB,RTK,M3E,"1331",,Daylight,"0.006","3956","75","0.0","99.9","0.000","0.0",2026:04:01 13:31:44,DJI_20260401133144_0048_V.JPG,"72.0",493ON344AB04YQ,"2.8","20260401","0.0","14.9265","1.60000",Alta,"14.2","8.9658","15371","51402",F:\AGROCERRADO\Faz Talisma Correntina\INPUT\20260401\M3E\DJI_202604011322_001_m2\DJI_20260401133144_0048_V.JPG,"0.000","18.0","0.002","12.8505",NULL,,"0.0",RtkAlt,,"-17.80","0.03535","+0.70","1.0","53.7","202604011331",WGS-84,"0.01165",,"100.0",,M3E,m2,True,"0.0000000","55",,"0",1581F5FH82577002N061,"72.0",,"200","0.3086","-10.00",,"0.0",,"0.0","+985.989","0.0","+186.135",.JPG,"0.002","0.01125",2026-04-01T16:32:03.497006,"0.0","0.006","0.000","11.9366","0.0000000","90","50","13.47","99.9933","(600.8997, 450.2196)",,"2.97","9.6736","0.2","5280",11.09.08.24,"(0.24, 0.24, 2.8, 11.0)","12.29","2.97","-89.90","-4.6",,,"1","14.9265","1",Unknown,"(13.0, 39.0, 32.9482)","2","3.0","001","(45.0, 38.0, 5.6092)",DJI_202604011322_001_m2,
49,985.997,"20260401","001",m2,DJI_202604011322_001_m2,NULL,F:\AGROCERRADO\Faz Talisma Correntina\INPUT\20260401\M3E\DJI_202604011322_001_m2,"-18.00",False,Normal,"+0.00",MPO_RGB,RTK,M3E,"1331",,Daylight,"0.008","3956","75","0.0","100.0","0.000","0.0",2026:04:01 13:31:48,DJI_20260401133148_0049_V.JPG,"72.0",493ON344AB04YQ,"2.8","20260401","0.0","14.9265","1.00000",Alta,"14.2","8.9658","15371","51403",F:\AGROCERRADO\Faz Talisma Correntina\INPUT\20260401\M3E\DJI_202604011322_001_m2\DJI_20260401133148_0049_V.JPG,"0.000","18.0","0.002","12.8507",NULL,,"0.0",RtkAlt,,"-17.80","0.03535","+0.70","1.0","53.7","202604011331",WGS-84,"0.01174",,"100.0",,M3E,m2,True,"0.0000000","55",,"0",1581F5FH82577002N061,"72.0",,"190","0.3086","-10.10",,"0.0",,"0.0","+985.997","0.0","+186.150",.JPG,"0.002","0.01132",2026-04-01T16:32:06.805239,"0.0","0.008","0.000","11.9366","0.0000000","90","50","13.45","99.9947","(600.9046, 450.2232)",,"2.97","9.6737","0.2","5280",11.09.08.24,"(0.24, 0.24, 2.8, 11.0)","12.29","2.97","-89.90","-4.6",,,"1","14.9265","1",Unknown,"(13.0, 39.0, 31.4223)","2","4.0","001","(45.0, 38.0, 6.1203)",DJI_202604011322_001_m2,
50,985.975,"20260401","001",m2,DJI_202604011322_001_m2,NULL,F:\AGROCERRADO\Faz Talisma Correntina\INPUT\20260401\M3E\DJI_202604011322_001_m2,"-18.00",False,Normal,"+180.00",MPO_RGB,RTK,M3E,"1331",,Daylight,"0.022","3956","75","0.0","99.9","0.000","0.0",2026:04:01 13:31:51,DJI_20260401133151_0050_V.JPG,"72.0",493ON344AB04YQ,"2.8","20260401","60.0","14.9265","1.20000",Alta,"14.2","8.9658","15371","51404",F:\AGROCERRADO\Faz Talisma Correntina\INPUT\20260401\M3E\DJI_202604011322_001_m2\DJI_20260401133151_0050_V.JPG,"0.000","18.0","0.0073","12.851",NULL,,"0.0",RtkAlt,,"+162.20","0.03468","+0.80","1.0","53.7","202604011331",WGS-84,"0.01151",,"100.0",,M3E,m2,True,"0.0000000","55",,"0",1581F5FH82577002N061,"72.0",,"190","0.3086","-9.90",,"0.0",,"0.0","+985.975","0.0","+186.133",.JPG,"0.002","0.01116",2026-04-01T16:32:10.089787,"0.0","0.022","0.000","11.9366","0.0000000","90","50","13.31","99.9647","(600.8912, 450.2132)",,"2.97","9.6734","0.2","5280",11.09.08.24,"(0.24, 0.24, 2.8, 11.0)","12.29","2.97","-90.00","-4.6",,,"1","14.9265","1",Unknown,"(13.0, 39.0, 29.9055)","2","3.0","001","(45.0, 38.0, 6.627)",DJI_202604011322_001_m2,
