PhotoNum,Altitude,DateName,FlightNum,FlightNam,Folder1,Folder2,MrkFolder,GsdCmPx,Path,AbsY,ShutPct,YSpeed,LensTemp,FocusDist,Firmware,ExpProg,FileType,ZoomRatio,LRFLati,ShutterSp,TimePrv,CapEff,MrkFile,PQI,CaptureID,RtkDifAge,WidthPX,Dist3DP,Lens,DronModel,LRFDist,DateOnly,SensTemp,ISOSpeed,folder_path,TrajSmt,BlurRisk,HeightPX,REI,Model,RtkFlag,LRFStatus,ApertureV,SensorFPS,GimOffset,LightCons,DroneID,TimeOnly,SpdVar,ShotCount,FormatMod,GimbPitch,VertStb,Longitude,RTKPrec,SizeMB,Dewarp,RtkStdLat,SpdKmH,EV,LRFY,GPSLong,PredOver,RelativeY,WhiteBlc,CameraID,ExpMode,LightSour,RtkStdLon,RtkStdHgt,RtkStab,IncAngle,GpsStatus,LrfAbsAlt,UTCTime,MrkPath,MaxApertV,StripID,DPIHeight,LRFLong,LSrcClass,GeoDstP,DateTime,IdealOvl,YawErr,AbrChgF,AvgVelB,GimAngV,ZSpeed,DronePitc,Latitude,Ytype,GimbRoll,HeatIdx,LinVelI,ImgQualit,GpsLat,DroneRoll,EstCover,GPSDatum,DPIWidth,File,ExpTime,FNumber,XSpeed,DirDispl,FocalLeng,folder,3DSpeed,DroneYaw,LensPosit,DateTmFul,Segments,OrtoPot,GimbYaw
3,487.719,"20260303","001",SR02,DJI_202603030909_001_SR02,Drone N,F:\TTG\FEV_2026\Faz Santa Rita\INPUT\03_03_2026\Drones\Drone N\DJI_202603030909_001_SR02,,,487.719,,0.1,,,10.00.11.52,2,.JPG,"1.0",-18.8429011,"9.64386",,,DJI_202603030909_001_SR02_Timestamp.MRK,,,1.2,5280,,"(24.0, 24.0, 2.8, 11.0)",Matrice 350 RTK,104.993,,41,100,F:\TTG\FEV_2026\Faz Santa Rita\INPUT\03_03_2026\Drones\Drone N\DJI_202603030909_001_SR02,,,3956,,L2,50,Normal,"2.97",5994/100,1,,1581F6GKB243900400B2,,,58274,,-90,,-54.15396398,,,0,0.00982,,,-76.345,"(54.0, 9.0, 14.2703)",,28.642,4931,493OL944AB04CB,0,1,0.01029,0.02387,,,RTK,383,2026-03-03T12:16:46.781651,F:\TTG\FEV_2026\Faz Santa Rita\INPUT\03_03_2026\Drones\Drone N\DJI_202603030909_001_SR02\DJI_202603030909_001_SR02_Timestamp.MRK,"2.97",,"72.0",-54.1539643,,,2026:03:03 09:15:57,,,,,,0,-4,-18.84290411,RtkAlt,180,,,,"(18.0, 50.0, 34.4547)",-2.7,,WGS-84,"72.0",,"0.00125","2.8",-0.7,,"12.29",DJI_202603030909_001_SR02,0.7071,171.3,,,,,-9.7
4,489.675,"20260303","001",SR02,DJI_202603030909_001_SR02,Drone N,F:\TTG\FEV_2026\Faz Santa Rita\INPUT\03_03_2026\Drones\Drone N\DJI_202603030909_001_SR02,,,489.675,,1.3,,,10.00.11.52,2,.JPG,"1.0",-18.8431935,"9.64386",,,DJI_202603030909_001_SR02_Timestamp.MRK,,,1.2,5280,,"(24.0, 24.0, 2.8, 11.0)",Matrice 350 RTK,97.176,,41,100,F:\TTG\FEV_2026\Faz Santa Rita\INPUT\03_03_2026\Drones\Drone N\DJI_202603030909_001_SR02,,,3956,,L2,50,Normal,"2.97",5994/100,1.1,,1581F6GKB243900400B2,,,58275,,-90,,-54.15391387,,,0,0.00993,,,-66.645,"(54.0, 9.0, 14.0899)",,30.587,4931,493OL944AB04CB,0,1,0.01039,0.02384,,,RTK,392.7,2026-03-03T12:16:53.028191,F:\TTG\FEV_2026\Faz Santa Rita\INPUT\03_03_2026\Drones\Drone N\DJI_202603030909_001_SR02\DJI_202603030909_001_SR02_Timestamp.MRK,"2.97",,"72.0",-54.1539152,,,2026:03:03 09:16:04,,,,,,-0.4,-8.5,-18.84320481,RtkAlt,180,,,,"(18.0, 50.0, 35.5373)",-2.8,,WGS-84,"72.0",,"0.00125","2.8",-8.3,,"12.29",DJI_202603030909_001_SR02,8.4107,171.1,,,,,-10
5,491.531,"20260303","001",SR02,DJI_202603030909_001_SR02,Drone N,F:\TTG\FEV_2026\Faz Santa Rita\INPUT\03_03_2026\Drones\Drone N\DJI_202603030909_001_SR02,,,491.531,,1.1,,,10.00.11.52,2,.JPG,"1.0",-18.8434781,"9.50184",,,DJI_202603030909_001_SR02_Timestamp.MRK,,,1.2,5280,,"(24.0, 24.0, 2.8, 11.0)",Matrice 350 RTK,104.159,,41,100,F:\TTG\FEV_2026\Faz Santa Rita\INPUT\03_03_2026\Drones\Drone N\DJI_202603030909_001_SR02,,,3956,,L2,50,Normal,"2.97",5994/100,1.8,,1581F6GKB243900400B2,,,58276,,-90,,-54.15386687,,,0,0.00979,,,-71.845,"(54.0, 9.0, 13.9207)",,32.417,4587,493OL944AB04CB,0,1,0.01024,0.02362,,,RTK,387.5,2026-03-03T12:16:56.966486,F:\TTG\FEV_2026\Faz Santa Rita\INPUT\03_03_2026\Drones\Drone N\DJI_202603030909_001_SR02\DJI_202603030909_001_SR02_Timestamp.MRK,"2.97",,"72.0",-54.1538684,,,2026:03:03 09:16:07,,,,,,-0.5,-6.5,-18.84349138,RtkAlt,180,,,,"(18.0, 50.0, 36.5689)",-4.5,,WGS-84,"72.0",,"0.001379310344827586","2.8",-7.8,,"12.29",DJI_202603030909_001_SR02,7.893,171.7,,,,,-10.1
6,493.429,"20260303","001",SR02,DJI_202603030909_001_SR02,Drone N,F:\TTG\FEV_2026\Faz Santa Rita\INPUT\03_03_2026\Drones\Drone N\DJI_202603030909_001_SR02,,,493.429,,1.3,,,10.00.11.52,2,.JPG,"1.0",-18.8437659,"9.64386",,,DJI_202603030909_001_SR02_Timestamp.MRK,,,1,5280,,"(24.0, 24.0, 2.8, 11.0)",Matrice 350 RTK,103.592,,41,110,F:\TTG\FEV_2026\Faz Santa Rita\INPUT\03_03_2026\Drones\Drone N\DJI_202603030909_001_SR02,,,3956,,L2,50,Normal,"2.97",5994/100,1.5,,1581F6GKB243900400B2,,,58277,,-90,,-54.15381986,,,0,0.00982,,,-69.245,"(54.0, 9.0, 13.7514)",,34.311,4638,493OL944AB04CB,0,1,0.01032,0.02371,,,RTK,390.1,2026-03-03T12:17:00.962759,F:\TTG\FEV_2026\Faz Santa Rita\INPUT\03_03_2026\Drones\Drone N\DJI_202603030909_001_SR02\DJI_202603030909_001_SR02_Timestamp.MRK,"2.97",,"72.0",-54.1538206,,,2026:03:03 09:16:11,,,,,,-0.4,-8.4,-18.84377242,RtkAlt,180,,,,"(18.0, 50.0, 37.5806)",-3.4,,WGS-84,"72.0",,"0.00125","2.8",-7.8,,"12.29",DJI_202603030909_001_SR02,7.9177,171.4,,,,,-10.1
7,495.363,"20260303","001",SR02,DJI_202603030909_001_SR02,Drone N,F:\TTG\FEV_2026\Faz Santa Rita\INPUT\03_03_2026\Drones\Drone N\DJI_202603030909_001_SR02,,,495.363,,1.2,,,10.00.11.52,2,.JPG,"1.0",-18.8440504,"10.28771",,,DJI_202603030909_001_SR02_Timestamp.MRK,,,1.2,5280,,"(24.0, 24.0, 2.8, 11.0)",Matrice 350 RTK,103.335,,41,110,F:\TTG\FEV_2026\Faz Santa Rita\INPUT\03_03_2026\Drones\Drone N\DJI_202603030909_001_SR02,,,3956,,L2,50,Normal,"2.97",5994/100,1.2,,1581F6GKB243900400B2,,,58278,,-90,,-54.15377139,,,0,0.00981,,,-67.045,"(54.0, 9.0, 13.577)",,36.24,4612,493OL944AB04CB,0,1,0.0103,0.02386,,,RTK,392.3,2026-03-03T12:17:04.986349,F:\TTG\FEV_2026\Faz Santa Rita\INPUT\03_03_2026\Drones\Drone N\DJI_202603030909_001_SR02\DJI_202603030909_001_SR02_Timestamp.MRK,"2.97",,"72.0",-54.1537722,,,2026:03:03 09:16:16,,,,,,-0.4,-7.4,-18.8440581,RtkAlt,180,,,,"(18.0, 50.0, 38.6091)",-3.5,,WGS-84,"72.0",,"0.0008","2.8",-7.8,,"12.29",DJI_202603030909_001_SR02,7.9019,171.1,,,,,-10.1
8,497.233,"20260303","001",SR02,DJI_202603030909_001_SR02,Drone N,F:\TTG\FEV_2026\Faz Santa Rita\INPUT\03_03_2026\Drones\Drone N\DJI_202603030909_001_SR02,,,497.233,,1.2,,,10.00.11.52,2,.JPG,"1.0",-18.8443197,"10.55075",,,DJI_202603030909_001_SR02_Timestamp.MRK,,,1,5280,,"(24.0, 24.0, 2.8, 11.0)",Matrice 350 RTK,110.003,,41,110,F:\TTG\FEV_2026\Faz Santa Rita\INPUT\03_03_2026\Drones\Drone N\DJI_202603030909_001_SR02,,,3956,,L2,50,Normal,"2.97",5994/100,1.5,,1581F6GKB243900400B2,,,58279,,-90,,-54.15372471,,,0,0.0098,,,-71.945,"(54.0, 9.0, 13.4089)",,38.1,4563,493OL944AB04CB,0,1,0.01027,0.02357,,,RTK,387.4,2026-03-03T12:17:08.904749,F:\TTG\FEV_2026\Faz Santa Rita\INPUT\03_03_2026\Drones\Drone N\DJI_202603030909_001_SR02\DJI_202603030909_001_SR02_Timestamp.MRK,"2.97",,"72.0",-54.153727,,,2026:03:03 09:16:20,,,,,,-0.4,-7.6,-18.8443357,RtkAlt,180,,,,"(18.0, 50.0, 39.6085)",-3.8,,WGS-84,"72.0",,"0.0006666666666666666","2.8",-7.8,,"12.29",DJI_202603030909_001_SR02,7.9019,171.3,,,,,-10.2
9,499.112,"20260303","001",SR02,DJI_202603030909_001_SR02,Drone N,F:\TTG\FEV_2026\Faz Santa Rita\INPUT\03_03_2026\Drones\Drone N\DJI_202603030909_001_SR02,,,499.112,,1.2,,,10.00.11.52,2,.JPG,"1.0",-18.8446025,"10.55075",,,DJI_202603030909_001_SR02_Timestamp.MRK,,,1,5280,,"(24.0, 24.0, 2.8, 11.0)",Matrice 350 RTK,110.37,,41,100,F:\TTG\FEV_2026\Faz Santa Rita\INPUT\03_03_2026\Drones\Drone N\DJI_202603030909_001_SR02,,,3956,,L2,50,Normal,"2.97",5994/100,1.3,,1581F6GKB243900400B2,,,58280,,-90,,-54.15367693,,,0,0.00975,,,-70.445,"(54.0, 9.0, 13.2369)",,39.981,4601,493OL944AB04CB,0,1,0.01025,0.0238,,,RTK,388.9,2026-03-03T12:17:12.908197,F:\TTG\FEV_2026\Faz Santa Rita\INPUT\03_03_2026\Drones\Drone N\DJI_202603030909_001_SR02\DJI_202603030909_001_SR02_Timestamp.MRK,"2.97",,"72.0",-54.1536792,,,2026:03:03 09:16:24,,,,,,-0.4,-7.9,-18.84461864,RtkAlt,180,,,,"(18.0, 50.0, 40.6271)",-3.8,,WGS-84,"72.0",,"0.0006666666666666666","2.8",-7.8,,"12.29",DJI_202603030909_001_SR02,7.9019,171.1,,,,,-10.2
10,501.041,"20260303","001",SR02,DJI_202603030909_001_SR02,Drone N,F:\TTG\FEV_2026\Faz Santa Rita\INPUT\03_03_2026\Drones\Drone N\DJI_202603030909_001_SR02,,,501.041,,1.2,,,10.00.11.52,2,.JPG,"1.0",-18.8448865,"10.55075",,,DJI_202603030909_001_SR02_Timestamp.MRK,,,1,5280,,"(24.0, 24.0, 2.8, 11.0)",Matrice 350 RTK,110.572,,40,100,F:\TTG\FEV_2026\Faz Santa Rita\INPUT\03_03_2026\Drones\Drone N\DJI_202603030909_001_SR02,,,3956,,L2,50,Normal,"2.97",5994/100,0.9,,1581F6GKB243900400B2,,,58281,,-90,,-54.15362907,,,0,0.00974,,,-68.745,"(54.0, 9.0, 13.0646)",,41.935,4627,493OL944AB04CB,0,1,0.0102,0.02373,,,RTK,390.6,2026-03-03T12:17:16.947885,F:\TTG\FEV_2026\Faz Santa Rita\INPUT\03_03_2026\Drones\Drone N\DJI_202603030909_001_SR02\DJI_202603030909_001_SR02_Timestamp.MRK,"2.97",,"72.0",-54.1536319,,,2026:03:03 09:16:28,,,,,,-0.4,-7.4,-18.84490543,RtkAlt,180,,,,"(18.0, 50.0, 41.6595)",-3.8,,WGS-84,"72.0",,"0.0006666666666666666","2.8",-7.8,,"12.29",DJI_202603030909_001_SR02,7.9019,170.7,,,,,-10.2
11,502.942,"20260303","001",SR02,DJI_202603030909_001_SR02,Drone N,F:\TTG\FEV_2026\Faz Santa Rita\INPUT\03_03_2026\Drones\Drone N\DJI_202603030909_001_SR02,,,502.942,,1.2,,,10.00.11.52,2,.JPG,"1.0",-18.8451689,"10.55075",,,DJI_202603030909_001_SR02_Timestamp.MRK,,,1.2,5280,,"(24.0, 24.0, 2.8, 11.0)",Matrice 350 RTK,110.689,,40,100,F:\TTG\FEV_2026\Faz Santa Rita\INPUT\03_03_2026\Drones\Drone N\DJI_202603030909_001_SR02,,,3956,,L2,50,Normal,"2.97",5994/100,1.5,,1581F6GKB243900400B2,,,58282,,-90,,-54.1535803,,,0,0.00963,,,-66.945,"(54.0, 9.0, 12.889)",,43.82,4494,493OL944AB04CB,0,1,0.01013,0.02327,,,RTK,392.4,2026-03-03T12:17:20.975521,F:\TTG\FEV_2026\Faz Santa Rita\INPUT\03_03_2026\Drones\Drone N\DJI_202603030909_001_SR02\DJI_202603030909_001_SR02_Timestamp.MRK,"2.97",,"72.0",-54.1535835,,,2026:03:03 09:16:32,,,,,,-0.5,-7.6,-18.84519099,RtkAlt,180,,,,"(18.0, 50.0, 42.6875)",-2.6,,WGS-84,"72.0",,"0.0006666666666666666","2.8",-7.9,,"12.29",DJI_202603030909_001_SR02,8.0062,171.2,,,,,-10.3
12,504.757,"20260303","001",SR02,DJI_202603030909_001_SR02,Drone N,F:\TTG\FEV_2026\Faz Santa Rita\INPUT\03_03_2026\Drones\Drone N\DJI_202603030909_001_SR02,,,504.757,,1.3,,,10.00.11.52,2,.JPG,"1.0",-18.8454542,"10.28771",,,DJI_202603030909_001_SR02_Timestamp.MRK,,,1,5280,,"(24.0, 24.0, 2.8, 11.0)",Matrice 350 RTK,110.674,,40,100,F:\TTG\FEV_2026\Faz Santa Rita\INPUT\03_03_2026\Drones\Drone N\DJI_202603030909_001_SR02,,,3956,,L2,50,Normal,"2.97",5994/100,1.2,,1581F6GKB243900400B2,,,58283,,-90,,-54.15353253,,,0,0.00978,,,-65.045,"(54.0, 9.0, 12.717)",,45.626,4181,493OL944AB04CB,0,2,0.01025,0.0237,,,RTK,394.3,2026-03-03T12:17:24.890916,F:\TTG\FEV_2026\Faz Santa Rita\INPUT\03_03_2026\Drones\Drone N\DJI_202603030909_001_SR02\DJI_202603030909_001_SR02_Timestamp.MRK,"2.97",,"72.0",-54.1535349,,,2026:03:03 09:16:36,,,,,,-0.4,-7.2,-18.84546907,RtkAlt,180,,,,"(18.0, 50.0, 43.6886)",0,,WGS-84,"72.0",,"0.0008","2.8",-7.7,,"12.29",DJI_202603030909_001_SR02,7.8192,170.8,,,,,-10.4
13,506.695,"20260303","001",SR02,DJI_202603030909_001_SR02,Drone N,F:\TTG\FEV_2026\Faz Santa Rita\INPUT\03_03_2026\Drones\Drone N\DJI_202603030909_001_SR02,,,506.695,,1.2,,,10.00.11.52,2,.JPG,"1.0",-18.8457456,"10.28771",,,DJI_202603030909_001_SR02_Timestamp.MRK,,,1,5280,,"(24.0, 24.0, 2.8, 11.0)",Matrice 350 RTK,110.504,,40,110,F:\TTG\FEV_2026\Faz Santa Rita\INPUT\03_03_2026\Drones\Drone N\DJI_202603030909_001_SR02,,,3956,,L2,50,Normal,"2.97",5994/100,1.6,,1581F6GKB243900400B2,,,58284,,-90,,-54.15348938,,,0,0.00974,,,-62.945,"(54.0, 9.0, 12.5617)",,47.555,3975,493OL944AB04CB,0,2,0.01025,0.02376,,,RTK,396.4,2026-03-03T12:17:28.906400,F:\TTG\FEV_2026\Faz Santa Rita\INPUT\03_03_2026\Drones\Drone N\DJI_202603030909_001_SR02\DJI_202603030909_001_SR02_Timestamp.MRK,"2.97",,"72.0",-54.1534904,,,2026:03:03 09:16:40,,,,,,-0.4,-5.9,-18.84575484,RtkAlt,180,,,,"(18.0, 50.0, 44.7174)",-5.4,,WGS-84,"72.0",,"0.0008","2.8",-7.8,,"12.29",DJI_202603030909_001_SR02,7.9019,171.4,,,,,-10.2
14,508.565,"20260303","001",SR02,DJI_202603030909_001_SR02,Drone N,F:\TTG\FEV_2026\Faz Santa Rita\INPUT\03_03_2026\Drones\Drone N\DJI_202603030909_001_SR02,,,508.565,,1.2,,,10.00.11.52,2,.JPG,"1.0",-18.8460284,"10.28771",,,DJI_202603030909_001_SR02_Timestamp.MRK,,,1,5280,,"(24.0, 24.0, 2.8, 11.0)",Matrice 350 RTK,110.235,,40,100,F:\TTG\FEV_2026\Faz Santa Rita\INPUT\03_03_2026\Drones\Drone N\DJI_202603030909_001_SR02,,,3956,,L2,50,Normal,"2.97",5994/100,1.2,,1581F6GKB243900400B2,,,58285,,-90,,-54.15344091,,,0,0.00975,,,-60.745,"(54.0, 9.0, 12.3872)",,49.453,3886,493OL944AB04CB,0,2,0.01025,0.02364,,,RTK,398.6,2026-03-03T12:17:32.853896,F:\TTG\FEV_2026\Faz Santa Rita\INPUT\03_03_2026\Drones\Drone N\DJI_202603030909_001_SR02\DJI_202603030909_001_SR02_Timestamp.MRK,"2.97",,"72.0",-54.1534414,,,2026:03:03 09:16:44,,,,,,-0.4,-6.4,-18.84603393,RtkAlt,180,,,,"(18.0, 50.0, 45.7221)",-4.3,,WGS-84,"72.0",,"0.0008","2.8",-7.8,,"12.29",DJI_202603030909_001_SR02,7.9019,171,,,,,-10.2
15,510.493,"20260303","001",SR02,DJI_202603030909_001_SR02,Drone N,F:\TTG\FEV_2026\Faz Santa Rita\INPUT\03_03_2026\Drones\Drone N\DJI_202603030909_001_SR02,,,510.493,,1.1,,,10.00.11.52,2,.JPG,"1.0",-18.8463124,"9.96578",,,DJI_202603030909_001_SR02_Timestamp.MRK,,,1,5280,,"(24.0, 24.0, 2.8, 11.0)",Matrice 350 RTK,110.159,,40,110,F:\TTG\FEV_2026\Faz Santa Rita\INPUT\03_03_2026\Drones\Drone N\DJI_202603030909_001_SR02,,,3956,,L2,50,Normal,"2.97",5994/100,1.5,,1581F6GKB243900400B2,,,58286,,-90,,-54.15339196,,,0,0.00973,,,-58.745,"(54.0, 9.0, 12.211)",,51.371,3864,493OL944AB04CB,0,2,0.01019,0.02346,,,RTK,400.6,2026-03-03T12:17:36.892260,F:\TTG\FEV_2026\Faz Santa Rita\INPUT\03_03_2026\Drones\Drone N\DJI_202603030909_001_SR02\DJI_202603030909_001_SR02_Timestamp.MRK,"2.97",,"72.0",-54.1533928,,,2026:03:03 09:16:48,,,,,,-0.4,-6.4,-18.84632047,RtkAlt,180,,,,"(18.0, 50.0, 46.7536)",-3.9,,WGS-84,"72.0",,"0.001","2.8",-7.8,,"12.29",DJI_202603030909_001_SR02,7.8873,171.2,,,,,-10.3
16,512.374,"20260303","001",SR02,DJI_202603030909_001_SR02,Drone N,F:\TTG\FEV_2026\Faz Santa Rita\INPUT\03_03_2026\Drones\Drone N\DJI_202603030909_001_SR02,,,512.374,,1.2,,,10.00.11.52,2,.JPG,"1.0",-18.8465955,"9.96578",,,DJI_202603030909_001_SR02_Timestamp.MRK,,,1,5280,,"(24.0, 24.0, 2.8, 11.0)",Matrice 350 RTK,109.963,,40,110,F:\TTG\FEV_2026\Faz Santa Rita\INPUT\03_03_2026\Drones\Drone N\DJI_202603030909_001_SR02,,,3956,,L2,50,Normal,"2.97",5994/100,1.5,,1581F6GKB243900400B2,,,58287,,-90,,-54.15334494,,,0,0.00975,,,-56.745,"(54.0, 9.0, 12.0417)",,53.242,3902,493OL944AB04CB,0,2,0.01027,0.02375,,,RTK,402.6,2026-03-03T12:17:40.889767,F:\TTG\FEV_2026\Faz Santa Rita\INPUT\03_03_2026\Drones\Drone N\DJI_202603030909_001_SR02\DJI_202603030909_001_SR02_Timestamp.MRK,"2.97",,"72.0",-54.153346,,,2026:03:03 09:16:52,,,,,,-0.4,-6.4,-18.8466043,RtkAlt,180,,,,"(18.0, 50.0, 47.7754)",-3.7,,WGS-84,"72.0",,"0.001","2.8",-7.8,,"12.29",DJI_202603030909_001_SR02,7.9019,171.2,,,,,-10.3
17,514.305,"20260303","001",SR02,DJI_202603030909_001_SR02,Drone N,F:\TTG\FEV_2026\Faz Santa Rita\INPUT\03_03_2026\Drones\Drone N\DJI_202603030909_001_SR02,,,514.305,,1.2,,,10.00.11.52,2,.JPG,"1.0",-18.8468792,"9.96578",,,DJI_202603030909_001_SR02_Timestamp.MRK,,,1,5280,,"(24.0, 24.0, 2.8, 11.0)",Matrice 350 RTK,109.83,,40,100,F:\TTG\FEV_2026\Faz Santa Rita\INPUT\03_03_2026\Drones\Drone N\DJI_202603030909_001_SR02,,,3956,,L2,50,Normal,"2.97",5994/100,1.1,,1581F6GKB243900400B2,,,58288,,-90,,-54.15329661,,,0,0.00968,,,-54.645,"(54.0, 9.0, 11.8678)",,55.17,3975,493OL944AB04CB,0,2,0.01019,0.0235,,,RTK,404.7,2026-03-03T12:17:44.909909,F:\TTG\FEV_2026\Faz Santa Rita\INPUT\03_03_2026\Drones\Drone N\DJI_202603030909_001_SR02\DJI_202603030909_001_SR02_Timestamp.MRK,"2.97",,"72.0",-54.1532978,,,2026:03:03 09:16:56,,,,,,-0.4,-6.4,-18.84688881,RtkAlt,180,,,,"(18.0, 50.0, 48.7997)",-3,,WGS-84,"72.0",,"0.001","2.8",-7.9,,"12.29",DJI_202603030909_001_SR02,8.0006,170.8,,,,,-10.3
18,516.13,"20260303","001",SR02,DJI_202603030909_001_SR02,Drone N,F:\TTG\FEV_2026\Faz Santa Rita\INPUT\03_03_2026\Drones\Drone N\DJI_202603030909_001_SR02,,,516.13,,1.2,,,10.00.11.52,2,.JPG,"1.0",-18.8471491,"10.28771",,,DJI_202603030909_001_SR02_Timestamp.MRK,,,1,5280,,"(24.0, 24.0, 2.8, 11.0)",Matrice 350 RTK,109.807,,40,110,F:\TTG\FEV_2026\Faz Santa Rita\INPUT\03_03_2026\Drones\Drone N\DJI_202603030909_001_SR02,,,3956,,L2,50,Normal,"2.97",5994/100,1.6,,1581F6GKB243900400B2,,,58289,,-90,,-54.15325061,,,0,0.00971,,,-52.845,"(54.0, 9.0, 11.7021)",,56.993,4112,493OL944AB04CB,0,2,0.01016,0.02341,,,RTK,406.5,2026-03-03T12:17:48.804959,F:\TTG\FEV_2026\Faz Santa Rita\INPUT\03_03_2026\Drones\Drone N\DJI_202603030909_001_SR02\DJI_202603030909_001_SR02_Timestamp.MRK,"2.97",,"72.0",-54.1532529,,,2026:03:03 09:17:00,,,,,,-0.4,-6.4,-18.84716527,RtkAlt,180,,,,"(18.0, 50.0, 49.7949)",-3.1,,WGS-84,"72.0",,"0.0008","2.8",-7.8,,"12.29",DJI_202603030909_001_SR02,7.9019,171.3,,,,,-10.3
19,518.038,"20260303","001",SR02,DJI_202603030909_001_SR02,Drone N,F:\TTG\FEV_2026\Faz Santa Rita\INPUT\03_03_2026\Drones\Drone N\DJI_202603030909_001_SR02,,,518.038,,1.2,,,10.00.11.52,2,.JPG,"1.0",-18.8474471,"9.96578",,,DJI_202603030909_001_SR02_Timestamp.MRK,,,1,5280,,"(24.0, 24.0, 2.8, 11.0)",Matrice 350 RTK,109.281,,40,100,F:\TTG\FEV_2026\Faz Santa Rita\INPUT\03_03_2026\Drones\Drone N\DJI_202603030909_001_SR02,,,3956,,L2,50,Normal,"2.97",5994/100,1.5,,1581F6GKB243900400B2,,,58290,,-90,,-54.15320291,,,0,0.0097,,,-50.345,"(54.0, 9.0, 11.5304)",,58.929,3949,493OL944AB04CB,0,2,0.01017,0.02334,,,RTK,409,2026-03-03T12:17:52.843729,F:\TTG\FEV_2026\Faz Santa Rita\INPUT\03_03_2026\Drones\Drone N\DJI_202603030909_001_SR02\DJI_202603030909_001_SR02_Timestamp.MRK,"2.97",,"72.0",-54.1532032,,,2026:03:03 09:17:04,,,,,,-0.4,-6.7,-18.8474519,RtkAlt,180,,,,"(18.0, 50.0, 50.8268)",-3.4,,WGS-84,"72.0",,"0.001","2.8",-7.8,,"12.29",DJI_202603030909_001_SR02,7.9019,171.2,,,,,-10.3
20,519.89,"20260303","001",SR02,DJI_202603030909_001_SR02,Drone N,F:\TTG\FEV_2026\Faz Santa Rita\INPUT\03_03_2026\Drones\Drone N\DJI_202603030909_001_SR02,,,519.89,,1.2,,,10.00.11.52,2,.JPG,"1.0",-18.8477173,"9.96578",,,DJI_202603030909_001_SR02_Timestamp.MRK,,,1,5280,,"(24.0, 24.0, 2.8, 11.0)",Matrice 350 RTK,109.156,,40,100,F:\TTG\FEV_2026\Faz Santa Rita\INPUT\03_03_2026\Drones\Drone N\DJI_202603030909_001_SR02,,,3956,,L2,50,Normal,"2.97",5994/100,1.6,,1581F6GKB243900400B2,,,58291,,-90,,-54.15315717,,,0,0.00973,,,-48.445,"(54.0, 9.0, 11.3657)",,60.777,3895,493OL944AB04CB,0,2,0.01023,0.02375,,,RTK,410.9,2026-03-03T12:17:56.769787,F:\TTG\FEV_2026\Faz Santa Rita\INPUT\03_03_2026\Drones\Drone N\DJI_202603030909_001_SR02\DJI_202603030909_001_SR02_Timestamp.MRK,"2.97",,"72.0",-54.153159,,,2026:03:03 09:17:08,,,,,,-0.4,-5.9,-18.84773112,RtkAlt,180,,,,"(18.0, 50.0, 51.832)",-4.4,,WGS-84,"72.0",,"0.001","2.8",-7.8,,"12.29",DJI_202603030909_001_SR02,7.9019,171.3,,,,,-10.3
21,521.795,"20260303","001",SR02,DJI_202603030909_001_SR02,Drone N,F:\TTG\FEV_2026\Faz Santa Rita\INPUT\03_03_2026\Drones\Drone N\DJI_202603030909_001_SR02,,,521.795,,1.2,,,10.00.11.52,2,.JPG,"1.0",-18.8479995,"10.28771",,,DJI_202603030909_001_SR02_Timestamp.MRK,,,1,5280,,"(24.0, 24.0, 2.8, 11.0)",Matrice 350 RTK,108.532,,40,100,F:\TTG\FEV_2026\Faz Santa Rita\INPUT\03_03_2026\Drones\Drone N\DJI_202603030909_001_SR02,,,3956,,L2,50,Normal,"2.97",5994/100,1.8,,1581F6GKB243900400B2,,,58292,,-90,,-54.1531087,,,0,0.00964,,,-45.945,"(54.0, 9.0, 11.1913)",,62.658,4033,493OL944AB04CB,0,2,0.01014,0.02356,,,RTK,413.4,2026-03-03T12:18:00.802508,F:\TTG\FEV_2026\Faz Santa Rita\INPUT\03_03_2026\Drones\Drone N\DJI_202603030909_001_SR02\DJI_202603030909_001_SR02_Timestamp.MRK,"2.97",,"72.0",-54.1531112,,,2026:03:03 09:17:12,,,,,,-0.4,-6.9,-18.84801656,RtkAlt,180,,,,"(18.0, 50.0, 52.8596)",-4.4,,WGS-84,"72.0",,"0.0008","2.8",-7.8,,"12.29",DJI_202603030909_001_SR02,7.9019,171.5,,,,,-10.3
22,523.717,"20260303","001",SR02,DJI_202603030909_001_SR02,Drone N,F:\TTG\FEV_2026\Faz Santa Rita\INPUT\03_03_2026\Drones\Drone N\DJI_202603030909_001_SR02,,,523.717,,1.3,,,10.00.11.52,2,.JPG,"1.0",-18.8482913,"10.55075",,,DJI_202603030909_001_SR02_Timestamp.MRK,,,1,5280,,"(24.0, 24.0, 2.8, 11.0)",Matrice 350 RTK,107.805,,40,100,F:\TTG\FEV_2026\Faz Santa Rita\INPUT\03_03_2026\Drones\Drone N\DJI_202603030909_001_SR02,,,3956,,L2,50,Normal,"2.97",5994/100,1.2,,1581F6GKB243900400B2,,,58293,,-90,,-54.15306051,,,0,0.00962,,,-43.245,"(54.0, 9.0, 11.0178)",,64.578,4641,493OL944AB04CB,0,1,0.01012,0.02339,,,RTK,416.1,2026-03-03T12:18:04.816607,F:\TTG\FEV_2026\Faz Santa Rita\INPUT\03_03_2026\Drones\Drone N\DJI_202603030909_001_SR02\DJI_202603030909_001_SR02_Timestamp.MRK,"2.97",,"72.0",-54.1530618,,,2026:03:03 09:17:16,,,,,,-0.4,-6.4,-18.84830108,RtkAlt,180,,,,"(18.0, 50.0, 53.8838)",-2.8,,WGS-84,"72.0",,"0.0006666666666666666","2.8",-7.8,,"12.29",DJI_202603030909_001_SR02,7.9177,170.8,,,,,-10.4
23,525.579,"20260303","001",SR02,DJI_202603030909_001_SR02,Drone N,F:\TTG\FEV_2026\Faz Santa Rita\INPUT\03_03_2026\Drones\Drone N\DJI_202603030909_001_SR02,,,525.579,,1.2,,,10.00.11.52,2,.JPG,"1.0",-18.8485746,"10.55075",,,DJI_202603030909_001_SR02_Timestamp.MRK,,,0.8,5280,,"(24.0, 24.0, 2.8, 11.0)",Matrice 350 RTK,106.907,,40,100,F:\TTG\FEV_2026\Faz Santa Rita\INPUT\03_03_2026\Drones\Drone N\DJI_202603030909_001_SR02,,,3956,,L2,50,Normal,"2.97",5994/100,1.2,,1581F6GKB243900400B2,,,58294,,-90,,-54.15301339,,,0,0.00967,,,-40.445,"(54.0, 9.0, 10.8482)",,66.474,4659,493OL944AB04CB,0,1,0.01018,0.02363,,,RTK,418.9,2026-03-03T12:18:08.744239,F:\TTG\FEV_2026\Faz Santa Rita\INPUT\03_03_2026\Drones\Drone N\DJI_202603030909_001_SR02\DJI_202603030909_001_SR02_Timestamp.MRK,"2.97",,"72.0",-54.1530138,,,2026:03:03 09:17:20,,,,,,-0.4,-6.9,-18.84857914,RtkAlt,180,,,,"(18.0, 50.0, 54.8848)",-2.5,,WGS-84,"72.0",,"0.0006666666666666666","2.8",-7.8,,"12.29",DJI_202603030909_001_SR02,7.9019,170.8,,,,,-10.4
24,527.474,"20260303","001",SR02,DJI_202603030909_001_SR02,Drone N,F:\TTG\FEV_2026\Faz Santa Rita\INPUT\03_03_2026\Drones\Drone N\DJI_202603030909_001_SR02,,,527.474,,1.3,,,10.00.11.52,2,.JPG,"1.0",-18.8488587,"10.55075",,,DJI_202603030909_001_SR02_Timestamp.MRK,,,1,5280,,"(24.0, 24.0, 2.8, 11.0)",Matrice 350 RTK,105.619,,40,100,F:\TTG\FEV_2026\Faz Santa Rita\INPUT\03_03_2026\Drones\Drone N\DJI_202603030909_001_SR02,,,3956,,L2,50,Normal,"2.97",5994/100,1.6,,1581F6GKB243900400B2,,,58295,,-90,,-54.15296544,,,0,0.0097,,,-37.245,"(54.0, 9.0, 10.6756)",,68.348,4338,493OL944AB04CB,0,1,0.01018,0.02337,,,RTK,422.1,2026-03-03T12:18:12.780917,F:\TTG\FEV_2026\Faz Santa Rita\INPUT\03_03_2026\Drones\Drone N\DJI_202603030909_001_SR02\DJI_202603030909_001_SR02_Timestamp.MRK,"2.97",,"72.0",-54.1529663,,,2026:03:03 09:17:24,,,,,,-0.5,-6.4,-18.84886598,RtkAlt,180,,,,"(18.0, 50.0, 55.9175)",-1.3,,WGS-84,"72.0",,"0.0006666666666666666","2.8",-7.8,,"12.29",DJI_202603030909_001_SR02,7.9234,171.2,,,,,-10.4
25,529.36,"20260303","001",SR02,DJI_202603030909_001_SR02,Drone N,F:\TTG\FEV_2026\Faz Santa Rita\INPUT\03_03_2026\Drones\Drone N\DJI_202603030909_001_SR02,,,529.36,,1.2,,,10.00.11.52,2,.JPG,"1.0",-18.8491361,"10.64386",,,DJI_202603030909_001_SR02_Timestamp.MRK,,,0.8,5280,,"(24.0, 24.0, 2.8, 11.0)",Matrice 350 RTK,104.905,,40,100,F:\TTG\FEV_2026\Faz Santa Rita\INPUT\03_03_2026\Drones\Drone N\DJI_202603030909_001_SR02,,,3956,,L2,50,Normal,"2.97",5994/100,1.4,,1581F6GKB243900400B2,,,58296,,-90,,-54.15291971,,,0,0.00967,,,-34.645,"(54.0, 9.0, 10.5109)",,70.218,4466,493OL944AB04CB,0,1,0.01015,0.02333,,,RTK,424.7,2026-03-03T12:18:16.709132,F:\TTG\FEV_2026\Faz Santa Rita\INPUT\03_03_2026\Drones\Drone N\DJI_202603030909_001_SR02\DJI_202603030909_001_SR02_Timestamp.MRK,"2.97",,"72.0",-54.1529208,,,2026:03:03 09:17:28,,,,,,-0.4,-6.2,-18.84914541,RtkAlt,180,,,,"(18.0, 50.0, 56.9234)",-3.1,,WGS-84,"72.0",,"0.000625","2.8",-7.8,,"12.29",DJI_202603030909_001_SR02,7.9019,171.1,,,,,-10.3
26,531.246,"20260303","001",SR02,DJI_202603030909_001_SR02,Drone N,F:\TTG\FEV_2026\Faz Santa Rita\INPUT\03_03_2026\Drones\Drone N\DJI_202603030909_001_SR02,,,531.246,,1.2,,,10.00.11.52,2,.JPG,"1.0",-18.8494179,"10.64386",,,DJI_202603030909_001_SR02_Timestamp.MRK,,,0.8,5280,,"(24.0, 24.0, 2.8, 11.0)",Matrice 350 RTK,103.841,,40,100,F:\TTG\FEV_2026\Faz Santa Rita\INPUT\03_03_2026\Drones\Drone N\DJI_202603030909_001_SR02,,,3956,,L2,50,Normal,"2.97",5994/100,1.1,,1581F6GKB243900400B2,,,58297,,-90,,-54.15287221,,,0,0.00973,,,-31.745,"(54.0, 9.0, 10.3399)",,72.105,4661,493OL944AB04CB,0,1,0.01017,0.0234,,,RTK,427.6,2026-03-03T12:18:20.693934,F:\TTG\FEV_2026\Faz Santa Rita\INPUT\03_03_2026\Drones\Drone N\DJI_202603030909_001_SR02\DJI_202603030909_001_SR02_Timestamp.MRK,"2.97",,"72.0",-54.1528735,,,2026:03:03 09:17:32,,,,,,-0.4,-6.9,-18.8494276,RtkAlt,180,,,,"(18.0, 50.0, 57.9393)",-3.1,,WGS-84,"72.0",,"0.000625","2.8",-7.8,,"12.29",DJI_202603030909_001_SR02,7.9019,170.8,,,,,-10.3
27,533.136,"20260303","001",SR02,DJI_202603030909_001_SR02,Drone N,F:\TTG\FEV_2026\Faz Santa Rita\INPUT\03_03_2026\Drones\Drone N\DJI_202603030909_001_SR02,,,533.136,,1,,,10.00.11.52,2,.JPG,"1.0",-18.8497021,"10.64386",,,DJI_202603030909_001_SR02_Timestamp.MRK,,,0.8,5280,,"(24.0, 24.0, 2.8, 11.0)",Matrice 350 RTK,102.422,,40,100,F:\TTG\FEV_2026\Faz Santa Rita\INPUT\03_03_2026\Drones\Drone N\DJI_202603030909_001_SR02,,,3956,,L2,50,Normal,"2.97",5994/100,2,,1581F6GKB243900400B2,,,58298,,-90,,-54.15282601,,,0,0.00967,,,-28.445,"(54.0, 9.0, 10.1736)",,74.033,4670,493OL944AB04CB,0,1,0.01017,0.0233,,,RTK,430.9,2026-03-03T12:18:24.733307,F:\TTG\FEV_2026\Faz Santa Rita\INPUT\03_03_2026\Drones\Drone N\DJI_202603030909_001_SR02\DJI_202603030909_001_SR02_Timestamp.MRK,"2.97",,"72.0",-54.1528271,,,2026:03:03 09:17:36,,,,,,-0.4,-8.5,-18.84971314,RtkAlt,180,,,,"(18.0, 50.0, 58.9672)",-5.9,,WGS-84,"72.0",,"0.000625","2.8",-7.8,,"12.29",DJI_202603030909_001_SR02,7.874,171.7,,,,,-10.3
28,535.037,"20260303","001",SR02,DJI_202603030909_001_SR02,Drone N,F:\TTG\FEV_2026\Faz Santa Rita\INPUT\03_03_2026\Drones\Drone N\DJI_202603030909_001_SR02,,,535.037,,1.3,,,10.00.11.52,2,.JPG,"1.0",-18.8499863,"10.64386",,,DJI_202603030909_001_SR02_Timestamp.MRK,,,0.8,5280,,"(24.0, 24.0, 2.8, 11.0)",Matrice 350 RTK,101.062,,40,100,F:\TTG\FEV_2026\Faz Santa Rita\INPUT\03_03_2026\Drones\Drone N\DJI_202603030909_001_SR02,,,3956,,L2,50,Normal,"2.97",5994/100,1.4,,1581F6GKB243900400B2,,,58299,,-90,,-54.15277878,,,0,0.00964,,,-25.145,"(54.0, 9.0, 10.0036)",,75.92,4623,493OL944AB04CB,0,1,0.01017,0.0233,,,RTK,434.2,2026-03-03T12:18:28.756739,F:\TTG\FEV_2026\Faz Santa Rita\INPUT\03_03_2026\Drones\Drone N\DJI_202603030909_001_SR02\DJI_202603030909_001_SR02_Timestamp.MRK,"2.97",,"72.0",-54.1527805,,,2026:03:03 09:17:40,,,,,,-0.4,-7,-18.8499991,RtkAlt,180,,,,"(18.0, 50.0, 59.9967)",-5.5,,WGS-84,"72.0",,"0.000625","2.8",-7.8,,"12.29",DJI_202603030909_001_SR02,7.9177,171.1,,,,,-10.3
29,536.884,"20260303","001",SR02,DJI_202603030909_001_SR02,Drone N,F:\TTG\FEV_2026\Faz Santa Rita\INPUT\03_03_2026\Drones\Drone N\DJI_202603030909_001_SR02,,,536.884,,1.2,,,10.00.11.52,2,.JPG,"1.0",-18.8502703,"10.55075",,,DJI_202603030909_001_SR02_Timestamp.MRK,,,0.8,5280,,"(24.0, 24.0, 2.8, 11.0)",Matrice 350 RTK,99.433,,40,100,F:\TTG\FEV_2026\Faz Santa Rita\INPUT\03_03_2026\Drones\Drone N\DJI_202603030909_001_SR02,,,3956,,L2,50,Normal,"2.97",5994/100,1.5,,1581F6GKB243900400B2,,,58300,,-90,,-54.15273114,,,0,0.00972,,,-21.645,"(54.0, 9.0, 9.832)",,77.76,4615,493OL944AB04CB,0,1,0.01025,0.02349,,,RTK,437.7,2026-03-03T12:18:32.678778,F:\TTG\FEV_2026\Faz Santa Rita\INPUT\03_03_2026\Drones\Drone N\DJI_202603030909_001_SR02\DJI_202603030909_001_SR02_Timestamp.MRK,"2.97",,"72.0",-54.152732,,,2026:03:03 09:17:44,,,,,,-0.4,-6.2,-18.8502775,RtkAlt,180,,,,"(18.0, 51.0, 0.999)",-5.7,,WGS-84,"72.0",,"0.0006666666666666666","2.8",-7.9,,"12.29",DJI_202603030909_001_SR02,8.0006,171.3,,,,,-10.2
30,538.802,"20260303","001",SR02,DJI_202603030909_001_SR02,Drone N,F:\TTG\FEV_2026\Faz Santa Rita\INPUT\03_03_2026\Drones\Drone N\DJI_202603030909_001_SR02,,,538.802,,1.2,,,10.00.11.52,2,.JPG,"1.0",-18.8505547,"10.55075",,,DJI_202603030909_001_SR02_Timestamp.MRK,,,0.8,5280,,"(24.0, 24.0, 2.8, 11.0)",Matrice 350 RTK,98.966,,40,100,F:\TTG\FEV_2026\Faz Santa Rita\INPUT\03_03_2026\Drones\Drone N\DJI_202603030909_001_SR02,,,3956,,L2,50,Normal,"2.97",5994/100,1.3,,1581F6GKB243900400B2,,,58301,,-90,,-54.15268283,,,0,0.0097,,,-19.345,"(54.0, 9.0, 9.6581)",,79.667,4644,493OL944AB04CB,0,1,0.0102,0.0234,,,RTK,440,2026-03-03T12:18:36.699578,F:\TTG\FEV_2026\Faz Santa Rita\INPUT\03_03_2026\Drones\Drone N\DJI_202603030909_001_SR02\DJI_202603030909_001_SR02_Timestamp.MRK,"2.97",,"72.0",-54.1526839,,,2026:03:03 09:17:48,,,,,,-0.4,-6,-18.85056331,RtkAlt,180,,,,"(18.0, 51.0, 2.0279)",-5.2,,WGS-84,"72.0",,"0.0006666666666666666","2.8",-7.8,,"12.29",DJI_202603030909_001_SR02,7.9019,171,,,,,-10.3
31,540.734,"20260303","001",SR02,DJI_202603030909_001_SR02,Drone N,F:\TTG\FEV_2026\Faz Santa Rita\INPUT\03_03_2026\Drones\Drone N\DJI_202603030909_001_SR02,,,540.734,,1.2,,,10.00.11.52,2,.JPG,"1.0",-18.850837,"10.55075",,,DJI_202603030909_001_SR02_Timestamp.MRK,,,0.8,5280,,"(24.0, 24.0, 2.8, 11.0)",Matrice 350 RTK,97.638,,40,100,F:\TTG\FEV_2026\Faz Santa Rita\INPUT\03_03_2026\Drones\Drone N\DJI_202603030909_001_SR02,,,3956,,L2,50,Normal,"2.97",5994/100,1.5,,1581F6GKB243900400B2,,,58302,,-90,,-54.15263476,,,0,0.00976,,,-16.045,"(54.0, 9.0, 9.4851)",,81.589,4649,493OL944AB04CB,0,1,0.01028,0.02347,,,RTK,443.3,2026-03-03T12:18:40.694397,F:\TTG\FEV_2026\Faz Santa Rita\INPUT\03_03_2026\Drones\Drone N\DJI_202603030909_001_SR02\DJI_202603030909_001_SR02_Timestamp.MRK,"2.97",,"72.0",-54.1526358,,,2026:03:03 09:17:52,,,,,,-0.5,-7.1,-18.85084675,RtkAlt,180,,,,"(18.0, 51.0, 3.0482)",-4.7,,WGS-84,"72.0",,"0.0006666666666666666","2.8",-7.8,,"12.29",DJI_202603030909_001_SR02,7.9076,171.2,,,,,-10.3
32,542.588,"20260303","001",SR02,DJI_202603030909_001_SR02,Drone N,F:\TTG\FEV_2026\Faz Santa Rita\INPUT\03_03_2026\Drones\Drone N\DJI_202603030909_001_SR02,,,542.588,,1.3,,,10.00.11.52,2,.JPG,"1.0",-18.8511075,"10.55075",,,DJI_202603030909_001_SR02_Timestamp.MRK,,,0.8,5280,,"(24.0, 24.0, 2.8, 11.0)",Matrice 350 RTK,96.478,,40,100,F:\TTG\FEV_2026\Faz Santa Rita\INPUT\03_03_2026\Drones\Drone N\DJI_202603030909_001_SR02,,,3956,,L2,50,Normal,"2.97",5994/100,1.4,,1581F6GKB243900400B2,,,58303,,-90,,-54.15258889,,,0,0.00966,,,-13.145,"(54.0, 9.0, 9.3199)",,83.43,4667,493OL944AB04CB,0,1,0.01021,0.02325,,,RTK,446.2,2026-03-03T12:18:44.621655,F:\TTG\FEV_2026\Faz Santa Rita\INPUT\03_03_2026\Drones\Drone N\DJI_202603030909_001_SR02\DJI_202603030909_001_SR02_Timestamp.MRK,"2.97",,"72.0",-54.1525916,,,2026:03:03 09:17:56,,,,,,-0.4,-6.7,-18.85112483,RtkAlt,180,,,,"(18.0, 51.0, 4.0493)",-5,,WGS-84,"72.0",,"0.0006666666666666666","2.8",-7.8,,"12.29",DJI_202603030909_001_SR02,7.9177,171.1,,,,,-10.3
33,544.447,"20260303","001",SR02,DJI_202603030909_001_SR02,Drone N,F:\TTG\FEV_2026\Faz Santa Rita\INPUT\03_03_2026\Drones\Drone N\DJI_202603030909_001_SR02,,,544.447,,1.2,,,10.00.11.52,2,.JPG,"1.0",-18.8514046,"10.55075",,,DJI_202603030909_001_SR02_Timestamp.MRK,,,0.8,5280,,"(24.0, 24.0, 2.8, 11.0)",Matrice 350 RTK,95.255,,40,100,F:\TTG\FEV_2026\Faz Santa Rita\INPUT\03_03_2026\Drones\Drone N\DJI_202603030909_001_SR02,,,3956,,L2,50,Normal,"2.97",5994/100,1.8,,1581F6GKB243900400B2,,,58304,,-90,,-54.15253949,,,0,0.00974,,,-9.945,"(54.0, 9.0, 9.1421)",,85.344,4126,493OL944AB04CB,0,2,0.01023,0.02346,,,RTK,449.4,2026-03-03T12:18:48.648198,F:\TTG\FEV_2026\Faz Santa Rita\INPUT\03_03_2026\Drones\Drone N\DJI_202603030909_001_SR02\DJI_202603030909_001_SR02_Timestamp.MRK,"2.97",,"72.0",-54.1525399,,,2026:03:03 09:18:00,,,,,,-0.4,-8.1,-18.85140976,RtkAlt,180,,,,"(18.0, 51.0, 5.0751)",-3.7,,WGS-84,"72.0",,"0.0006666666666666666","2.8",-7.8,,"12.29",DJI_202603030909_001_SR02,7.9019,171.4,,,,,-10.4
34,546.349,"20260303","001",SR02,DJI_202603030909_001_SR02,Drone N,F:\TTG\FEV_2026\Faz Santa Rita\INPUT\03_03_2026\Drones\Drone N\DJI_202603030909_001_SR02,,,546.349,,1.2,,,10.00.11.52,2,.JPG,"1.0",-18.8516754,"10.55075",,,DJI_202603030909_001_SR02_Timestamp.MRK,,,0.8,5280,,"(24.0, 24.0, 2.8, 11.0)",Matrice 350 RTK,94.791,,40,120,F:\TTG\FEV_2026\Faz Santa Rita\INPUT\03_03_2026\Drones\Drone N\DJI_202603030909_001_SR02,,,3956,,L2,50,Normal,"2.97",5994/100,1.3,,1581F6GKB243900400B2,,,58305,,-90,,-54.152492,,,0,0.00974,,,-7.645,"(54.0, 9.0, 8.9711)",,87.227,3853,493OL944AB04CB,0,2,0.0102,0.02346,,,RTK,451.7,2026-03-03T12:18:52.587431,F:\TTG\FEV_2026\Faz Santa Rita\INPUT\03_03_2026\Drones\Drone N\DJI_202603030909_001_SR02\DJI_202603030909_001_SR02_Timestamp.MRK,"2.97",,"72.0",-54.1524941,,,2026:03:03 09:18:04,,,,,,-0.4,-6.5,-18.85169034,RtkAlt,180,,,,"(18.0, 51.0, 6.0852)",-2.6,,WGS-84,"72.0",,"0.0006666666666666666","2.8",-7.8,,"12.29",DJI_202603030909_001_SR02,7.9019,170.9,,,,,-10.4
35,546.72,"20260303","001",SR02,DJI_202603030909_001_SR02,Drone N,F:\TTG\FEV_2026\Faz Santa Rita\INPUT\03_03_2026\Drones\Drone N\DJI_202603030909_001_SR02,,,546.72,,1.2,,,10.00.11.52,2,.JPG,"1.0",-18.8517602,"10.55075",,,DJI_202603030909_001_SR02_Timestamp.MRK,,,0.8,5280,,"(24.0, 24.0, 2.8, 11.0)",Matrice 350 RTK,94.669,,40,110,F:\TTG\FEV_2026\Faz Santa Rita\INPUT\03_03_2026\Drones\Drone N\DJI_202603030909_001_SR02,,,3956,,L2,50,Normal,"2.97",5994/100,1.5,,1581F6GKB243900400B2,,,58306,,-90,,-54.15247818,,,0,0.00969,,,-7.045,"(54.0, 9.0, 8.9214)",,87.622,3854,493OL944AB04CB,0,2,0.01018,0.02332,,,RTK,452.3,2026-03-03T12:18:53.753998,F:\TTG\FEV_2026\Faz Santa Rita\INPUT\03_03_2026\Drones\Drone N\DJI_202603030909_001_SR02\DJI_202603030909_001_SR02_Timestamp.MRK,"2.97",,"72.0",-54.1524799,,,2026:03:03 09:18:05,,,,,,-0.2,-6.8,-18.85177278,RtkAlt,180,,,,"(18.0, 51.0, 6.382)",-2.8,,WGS-84,"72.0",,"0.0006666666666666666","2.8",-7.8,,"12.29",DJI_202603030909_001_SR02,7.8943,171.1,,,,,-10.4
36,547.06,"20260303","001",SR02,DJI_202603030909_001_SR02,Drone N,F:\TTG\FEV_2026\Faz Santa Rita\INPUT\03_03_2026\Drones\Drone N\DJI_202603030909_001_SR02,,,547.06,,1.2,,,10.00.11.52,2,.JPG,"1.0",-18.8520583,"10.28771",,,DJI_202603030909_001_SR02_Timestamp.MRK,,,1,5280,,"(24.0, 24.0, 2.8, 11.0)",Matrice 350 RTK,94.077,,40,100,F:\TTG\FEV_2026\Faz Santa Rita\INPUT\03_03_2026\Drones\Drone N\DJI_202603030909_001_SR02,,,3956,,L2,50,Normal,"2.97",5994/100,1.6,,1581F6GKB243900400B2,,,58307,,-90,,-54.15242982,,,0,0.00979,,,-6.145,"(54.0, 9.0, 8.7473)",,87.971,3878,493OL944AB04CB,0,2,0.01026,0.0234,,,RTK,453.2,2026-03-03T12:18:57.901278,F:\TTG\FEV_2026\Faz Santa Rita\INPUT\03_03_2026\Drones\Drone N\DJI_202603030909_001_SR02\DJI_202603030909_001_SR02_Timestamp.MRK,"2.97",,"72.0",-54.1524309,,,2026:03:03 09:18:09,,,,,,0,-7,-18.85206725,RtkAlt,180,,,,"(18.0, 51.0, 7.442)",-2.2,,WGS-84,"72.0",,"0.0008","2.8",-7.8,,"12.29",DJI_202603030909_001_SR02,7.8918,171.2,,,,,-10.4
37,547.378,"20260303","001",SR02,DJI_202603030909_001_SR02,Drone N,F:\TTG\FEV_2026\Faz Santa Rita\INPUT\03_03_2026\Drones\Drone N\DJI_202603030909_001_SR02,,,547.378,,1.2,,,10.00.11.52,2,.JPG,"1.0",-18.852342,"10.28771",,,DJI_202603030909_001_SR02_Timestamp.MRK,,,1,5280,,"(24.0, 24.0, 2.8, 11.0)",Matrice 350 RTK,93.951,,40,100,F:\TTG\FEV_2026\Faz Santa Rita\INPUT\03_03_2026\Drones\Drone N\DJI_202603030909_001_SR02,,,3956,,L2,50,Normal,"2.97",5994/100,1.7,,1581F6GKB243900400B2,,,58308,,-90,,-54.15238124,,,0,0.00971,,,-5.645,"(54.0, 9.0, 8.5724)",,88.3,3884,493OL944AB04CB,0,2,0.01019,0.02326,,,RTK,453.7,2026-03-03T12:19:01.931817,F:\TTG\FEV_2026\Faz Santa Rita\INPUT\03_03_2026\Drones\Drone N\DJI_202603030909_001_SR02\DJI_202603030909_001_SR02_Timestamp.MRK,"2.97",,"72.0",-54.1523826,,,2026:03:03 09:18:13,,,,,,0,-6.9,-18.85235292,RtkAlt,180,,,,"(18.0, 51.0, 8.4705)",-1.6,,WGS-84,"72.0",,"0.0008","2.8",-7.8,,"12.29",DJI_202603030909_001_SR02,7.8918,171.3,,,,,-10.4
38,547.699,"20260303","001",SR02,DJI_202603030909_001_SR02,Drone N,F:\TTG\FEV_2026\Faz Santa Rita\INPUT\03_03_2026\Drones\Drone N\DJI_202603030909_001_SR02,,,547.699,,1.1,,,10.00.11.52,2,.JPG,"1.0",-18.8526247,"10.28771",,,DJI_202603030909_001_SR02_Timestamp.MRK,,,1,5280,,"(24.0, 24.0, 2.8, 11.0)",Matrice 350 RTK,94.174,,40,100,F:\TTG\FEV_2026\Faz Santa Rita\INPUT\03_03_2026\Drones\Drone N\DJI_202603030909_001_SR02,,,3956,,L2,50,Normal,"2.97",5994/100,1.6,,1581F6GKB243900400B2,,,58309,,-90,,-54.15233457,,,0,0.00978,,,-5.545,"(54.0, 9.0, 8.4044)",,88.613,3891,493OL944AB04CB,0,2,0.01023,0.02343,,,RTK,453.8,2026-03-03T12:19:05.944693,F:\TTG\FEV_2026\Faz Santa Rita\INPUT\03_03_2026\Drones\Drone N\DJI_202603030909_001_SR02\DJI_202603030909_001_SR02_Timestamp.MRK,"2.97",,"72.0",-54.1523362,,,2026:03:03 09:18:17,,,,,,-0.1,-7,-18.85263747,RtkAlt,180,,,,"(18.0, 51.0, 9.4948)",-3.3,,WGS-84,"72.0",,"0.0008","2.8",-7.9,,"12.29",DJI_202603030909_001_SR02,7.9768,171.3,,,,,-10.3
39,548.015,"20260303","001",SR02,DJI_202603030909_001_SR02,Drone N,F:\TTG\FEV_2026\Faz Santa Rita\INPUT\03_03_2026\Drones\Drone N\DJI_202603030909_001_SR02,,,548.015,,1.2,,,10.00.11.52,2,.JPG,"1.0",-18.8528964,"10.28771",,,DJI_202603030909_001_SR02_Timestamp.MRK,,,1,5280,,"(24.0, 24.0, 2.8, 11.0)",Matrice 350 RTK,94.594,,40,100,F:\TTG\FEV_2026\Faz Santa Rita\INPUT\03_03_2026\Drones\Drone N\DJI_202603030909_001_SR02,,,3956,,L2,50,Normal,"2.97",5994/100,1.4,,1581F6GKB243900400B2,,,58310,,-90,,-54.15228779,,,0,0.00975,,,-5.645,"(54.0, 9.0, 8.236)",,88.928,3890,493OL944AB04CB,0,2,0.0102,0.02344,,,RTK,453.7,2026-03-03T12:19:09.882563,F:\TTG\FEV_2026\Faz Santa Rita\INPUT\03_03_2026\Drones\Drone N\DJI_202603030909_001_SR02\DJI_202603030909_001_SR02_Timestamp.MRK,"2.97",,"72.0",-54.1522911,,,2026:03:03 09:18:21,,,,,,0,-5.3,-18.85291828,RtkAlt,180,,,,"(18.0, 51.0, 10.5058)",-2.3,,WGS-84,"72.0",,"0.0008","2.8",-7.8,,"12.29",DJI_202603030909_001_SR02,7.8918,171.1,,,,,-10.3
40,548.347,"20260303","001",SR02,DJI_202603030909_001_SR02,Drone N,F:\TTG\FEV_2026\Faz Santa Rita\INPUT\03_03_2026\Drones\Drone N\DJI_202603030909_001_SR02,,,548.347,,1.2,,,10.00.11.52,2,.JPG,"1.0",-18.8531941,"10.28771",,,DJI_202603030909_001_SR02_Timestamp.MRK,,,1,5280,,"(24.0, 24.0, 2.8, 11.0)",Matrice 350 RTK,95.176,,40,100,F:\TTG\FEV_2026\Faz Santa Rita\INPUT\03_03_2026\Drones\Drone N\DJI_202603030909_001_SR02,,,3956,,L2,50,Normal,"2.97",5994/100,1.4,,1581F6GKB243900400B2,,,58311,,-90,,-54.15224046,,,0,0.00967,,,-5.945,"(54.0, 9.0, 8.0656)",,89.258,3887,493OL944AB04CB,0,2,0.01013,0.02344,,,RTK,453.4,2026-03-03T12:19:13.908140,F:\TTG\FEV_2026\Faz Santa Rita\INPUT\03_03_2026\Drones\Drone N\DJI_202603030909_001_SR02\DJI_202603030909_001_SR02_Timestamp.MRK,"2.97",,"72.0",-54.1522416,,,2026:03:03 09:18:25,,,,,,0,-5.3,-18.85320355,RtkAlt,180,,,,"(18.0, 51.0, 11.5327)",-2.3,,WGS-84,"72.0",,"0.0008","2.8",-7.8,,"12.29",DJI_202603030909_001_SR02,7.8918,171.1,,,,,-10.3
41,548.646,"20260303","001",SR02,DJI_202603030909_001_SR02,Drone N,F:\TTG\FEV_2026\Faz Santa Rita\INPUT\03_03_2026\Drones\Drone N\DJI_202603030909_001_SR02,,,548.646,,1.1,,,10.00.11.52,2,.JPG,"1.0",-18.8534782,"10.64386",,,DJI_202603030909_001_SR02_Timestamp.MRK,,,1,5280,,"(24.0, 24.0, 2.8, 11.0)",Matrice 350 RTK,95.911,,40,100,F:\TTG\FEV_2026\Faz Santa Rita\INPUT\03_03_2026\Drones\Drone N\DJI_202603030909_001_SR02,,,3956,,L2,50,Normal,"2.97",5994/100,1.5,,1581F6GKB243900400B2,,,58312,,-90,,-54.15219282,,,0,0.00974,,,-6.345,"(54.0, 9.0, 7.8941)",,89.553,4165,493OL944AB04CB,0,2,0.0102,0.02351,,,RTK,453,2026-03-03T12:19:17.921600,F:\TTG\FEV_2026\Faz Santa Rita\INPUT\03_03_2026\Drones\Drone N\DJI_202603030909_001_SR02\DJI_202603030909_001_SR02_Timestamp.MRK,"2.97",,"72.0",-54.152194,,,2026:03:03 09:18:29,,,,,,0,-5.3,-18.85348853,RtkAlt,180,,,,"(18.0, 51.0, 12.5586)",-3.2,,WGS-84,"72.0",,"0.000625","2.8",-7.8,,"12.29",DJI_202603030909_001_SR02,7.8772,171.2,,,,,-10.3
42,548.966,"20260303","001",SR02,DJI_202603030909_001_SR02,Drone N,F:\TTG\FEV_2026\Faz Santa Rita\INPUT\03_03_2026\Drones\Drone N\DJI_202603030909_001_SR02,,,548.966,,1.2,,,10.00.11.52,2,.JPG,"1.0",-18.8537617,"10.64386",,,DJI_202603030909_001_SR02_Timestamp.MRK,,,1,5280,,"(24.0, 24.0, 2.8, 11.0)",Matrice 350 RTK,96.616,,40,110,F:\TTG\FEV_2026\Faz Santa Rita\INPUT\03_03_2026\Drones\Drone N\DJI_202603030909_001_SR02,,,3956,,L2,50,Normal,"2.97",5994/100,1.4,,1581F6GKB243900400B2,,,58313,,-90,,-54.15214528,,,0,0.00976,,,-6.745,"(54.0, 9.0, 7.723)",,89.876,4373,493OL944AB04CB,0,1,0.01019,0.02338,,,RTK,452.6,2026-03-03T12:19:21.921652,F:\TTG\FEV_2026\Faz Santa Rita\INPUT\03_03_2026\Drones\Drone N\DJI_202603030909_001_SR02\DJI_202603030909_001_SR02_Timestamp.MRK,"2.97",,"72.0",-54.1521466,,,2026:03:03 09:18:33,,,,,,0,-5.6,-18.85377195,RtkAlt,180,,,,"(18.0, 51.0, 13.579)",-2.5,,WGS-84,"72.0",,"0.000625","2.8",-7.8,,"12.29",DJI_202603030909_001_SR02,7.8918,171.1,,,,,-10.3
43,549.262,"20260303","001",SR02,DJI_202603030909_001_SR02,Drone N,F:\TTG\FEV_2026\Faz Santa Rita\INPUT\03_03_2026\Drones\Drone N\DJI_202603030909_001_SR02,,,549.262,,1.2,,,10.00.11.52,2,.JPG,"1.0",-18.8540521,"10.64386",,,DJI_202603030909_001_SR02_Timestamp.MRK,,,1.2,5280,,"(24.0, 24.0, 2.8, 11.0)",Matrice 350 RTK,97.36,,40,100,F:\TTG\FEV_2026\Faz Santa Rita\INPUT\03_03_2026\Drones\Drone N\DJI_202603030909_001_SR02,,,3956,,L2,50,Normal,"2.97",5994/100,1.5,,1581F6GKB243900400B2,,,58314,,-90,,-54.15209766,,,0,0.00972,,,-7.145,"(54.0, 9.0, 7.5515)",,90.175,4443,493OL944AB04CB,0,1,0.01018,0.02352,,,RTK,452.2,2026-03-03T12:19:25.965084,F:\TTG\FEV_2026\Faz Santa Rita\INPUT\03_03_2026\Drones\Drone N\DJI_202603030909_001_SR02\DJI_202603030909_001_SR02_Timestamp.MRK,"2.97",,"72.0",-54.1520984,,,2026:03:03 09:18:37,,,,,,0,-5.7,-18.85405882,RtkAlt,180,,,,"(18.0, 51.0, 14.6117)",-3.1,,WGS-84,"72.0",,"0.000625","2.8",-7.8,,"12.29",DJI_202603030909_001_SR02,7.8918,171.2,,,,,-10.3
44,549.574,"20260303","001",SR02,DJI_202603030909_001_SR02,Drone N,F:\TTG\FEV_2026\Faz Santa Rita\INPUT\03_03_2026\Drones\Drone N\DJI_202603030909_001_SR02,,,549.574,,1.2,,,10.00.11.52,2,.JPG,"1.0",-18.8543221,"10.64386",,,DJI_202603030909_001_SR02_Timestamp.MRK,,,1,5280,,"(24.0, 24.0, 2.8, 11.0)",Matrice 350 RTK,98.031,,40,100,F:\TTG\FEV_2026\Faz Santa Rita\INPUT\03_03_2026\Drones\Drone N\DJI_202603030909_001_SR02,,,3956,,L2,50,Normal,"2.97",5994/100,1.6,,1581F6GKB243900400B2,,,58315,,-90,,-54.15205174,,,0,0.00976,,,-7.545,"(54.0, 9.0, 7.3862)",,90.484,4608,493OL944AB04CB,0,1,0.01024,0.02373,,,RTK,451.8,2026-03-03T12:19:29.889688,F:\TTG\FEV_2026\Faz Santa Rita\INPUT\03_03_2026\Drones\Drone N\DJI_202603030909_001_SR02\DJI_202603030909_001_SR02_Timestamp.MRK,"2.97",,"72.0",-54.1520537,,,2026:03:03 09:18:41,,,,,,0,-5.6,-18.85433713,RtkAlt,180,,,,"(18.0, 51.0, 15.6136)",-3.7,,WGS-84,"72.0",,"0.000625","2.8",-7.8,,"12.29",DJI_202603030909_001_SR02,7.8918,171.3,,,,,-10.3
45,549.885,"20260303","001",SR02,DJI_202603030909_001_SR02,Drone N,F:\TTG\FEV_2026\Faz Santa Rita\INPUT\03_03_2026\Drones\Drone N\DJI_202603030909_001_SR02,,,549.885,,1.2,,,10.00.11.52,2,.JPG,"1.0",-18.8546126,"10.64386",,,DJI_202603030909_001_SR02_Timestamp.MRK,,,1,5280,,"(24.0, 24.0, 2.8, 11.0)",Matrice 350 RTK,98.841,,40,100,F:\TTG\FEV_2026\Faz Santa Rita\INPUT\03_03_2026\Drones\Drone N\DJI_202603030909_001_SR02,,,3956,,L2,50,Normal,"2.97",5994/100,1.3,,1581F6GKB243900400B2,,,58316,,-90,,-54.15200342,,,0,0.00973,,,-8.045,"(54.0, 9.0, 7.2123)",,90.797,4648,493OL944AB04CB,0,1,0.01017,0.02337,,,RTK,451.3,2026-03-03T12:19:33.912912,F:\TTG\FEV_2026\Faz Santa Rita\INPUT\03_03_2026\Drones\Drone N\DJI_202603030909_001_SR02\DJI_202603030909_001_SR02_Timestamp.MRK,"2.97",,"72.0",-54.1520046,,,2026:03:03 09:18:45,,,,,,0,-6.4,-18.85462226,RtkAlt,180,,,,"(18.0, 51.0, 16.6401)",-2.7,,WGS-84,"72.0",,"0.000625","2.8",-7.8,,"12.29",DJI_202603030909_001_SR02,7.8918,171,,,,,-10.3
46,550.2,"20260303","001",SR02,DJI_202603030909_001_SR02,Drone N,F:\TTG\FEV_2026\Faz Santa Rita\INPUT\03_03_2026\Drones\Drone N\DJI_202603030909_001_SR02,,,550.2,,1.2,,,10.00.11.52,2,.JPG,"1.0",-18.8548964,"10.64386",,,DJI_202603030909_001_SR02_Timestamp.MRK,,,1,5280,,"(24.0, 24.0, 2.8, 11.0)",Matrice 350 RTK,99.514,,40,100,F:\TTG\FEV_2026\Faz Santa Rita\INPUT\03_03_2026\Drones\Drone N\DJI_202603030909_001_SR02,,,3956,,L2,50,Normal,"2.97",5994/100,1.5,,1581F6GKB243900400B2,,,58317,,-90,,-54.15195573,,,0,0.00972,,,-8.445,"(54.0, 9.0, 7.0406)",,91.109,4645,493OL944AB04CB,0,1,0.01019,0.02351,,,RTK,450.9,2026-03-03T12:19:37.922230,F:\TTG\FEV_2026\Faz Santa Rita\INPUT\03_03_2026\Drones\Drone N\DJI_202603030909_001_SR02\DJI_202603030909_001_SR02_Timestamp.MRK,"2.97",,"72.0",-54.1519571,,,2026:03:03 09:18:49,,,,,,0,-6.2,-18.85490671,RtkAlt,180,,,,"(18.0, 51.0, 17.6641)",-3.4,,WGS-84,"72.0",,"0.000625","2.8",-7.8,,"12.29",DJI_202603030909_001_SR02,7.8918,171.2,,,,,-10.3
47,550.494,"20260303","001",SR02,DJI_202603030909_001_SR02,Drone N,F:\TTG\FEV_2026\Faz Santa Rita\INPUT\03_03_2026\Drones\Drone N\DJI_202603030909_001_SR02,,,550.494,,1.2,,,10.00.11.52,2,.JPG,"1.0",-18.8551811,"10.64386",,,DJI_202603030909_001_SR02_Timestamp.MRK,,,1,5280,,"(24.0, 24.0, 2.8, 11.0)",Matrice 350 RTK,99.601,,40,100,F:\TTG\FEV_2026\Faz Santa Rita\INPUT\03_03_2026\Drones\Drone N\DJI_202603030909_001_SR02,,,3956,,L2,50,Normal,"2.97",5994/100,1.2,,1581F6GKB243900400B2,,,58318,,-90,,-54.15190744,,,0,0.00975,,,-8.245,"(54.0, 9.0, 6.8667)",,91.412,4624,493OL944AB04CB,0,1,0.01024,0.02362,,,RTK,451.1,2026-03-03T12:19:41.923612,F:\TTG\FEV_2026\Faz Santa Rita\INPUT\03_03_2026\Drones\Drone N\DJI_202603030909_001_SR02\DJI_202603030909_001_SR02_Timestamp.MRK,"2.97",,"72.0",-54.1519088,,,2026:03:03 09:18:53,,,,,,-0.1,-5.5,-18.85519147,RtkAlt,180,,,,"(18.0, 51.0, 18.6892)",-2.6,,WGS-84,"72.0",,"0.000625","2.8",-7.8,,"12.29",DJI_202603030909_001_SR02,7.8924,170.9,,,,,-10.3
48,550.793,"20260303","001",SR02,DJI_202603030909_001_SR02,Drone N,F:\TTG\FEV_2026\Faz Santa Rita\INPUT\03_03_2026\Drones\Drone N\DJI_202603030909_001_SR02,,,550.793,,1.2,,,10.00.11.52,2,.JPG,"1.0",-18.8554645,"10.64386",,,DJI_202603030909_001_SR02_Timestamp.MRK,,,1,5280,,"(24.0, 24.0, 2.8, 11.0)",Matrice 350 RTK,100.628,,40,100,F:\TTG\FEV_2026\Faz Santa Rita\INPUT\03_03_2026\Drones\Drone N\DJI_202603030909_001_SR02,,,3956,,L2,50,Normal,"2.97",5994/100,1.4,,1581F6GKB243900400B2,,,58319,,-90,,-54.15186038,,,0,0.00974,,,-8.945,"(54.0, 9.0, 6.6973)",,91.706,4619,493OL944AB04CB,0,1,0.01016,0.0233,,,RTK,450.4,2026-03-03T12:19:45.887317,F:\TTG\FEV_2026\Faz Santa Rita\INPUT\03_03_2026\Drones\Drone N\DJI_202603030909_001_SR02\DJI_202603030909_001_SR02_Timestamp.MRK,"2.97",,"72.0",-54.1518613,,,2026:03:03 09:18:57,,,,,,0,-6.8,-18.85547307,RtkAlt,180,,,,"(18.0, 51.0, 19.703)",-2.9,,WGS-84,"72.0",,"0.000625","2.8",-7.8,,"12.29",DJI_202603030909_001_SR02,7.8918,171.1,,,,,-10.3
49,551.119,"20260303","001",SR02,DJI_202603030909_001_SR02,Drone N,F:\TTG\FEV_2026\Faz Santa Rita\INPUT\03_03_2026\Drones\Drone N\DJI_202603030909_001_SR02,,,551.119,,1.2,,,10.00.11.52,2,.JPG,"1.0",-18.8557487,"10.64386",,,DJI_202603030909_001_SR02_Timestamp.MRK,,,1,5280,,"(24.0, 24.0, 2.8, 11.0)",Matrice 350 RTK,100.921,,40,100,F:\TTG\FEV_2026\Faz Santa Rita\INPUT\03_03_2026\Drones\Drone N\DJI_202603030909_001_SR02,,,3956,,L2,50,Normal,"2.97",5994/100,1.4,,1581F6GKB243900400B2,,,58320,,-90,,-54.15181262,,,0,0.0098,,,-8.845,"(54.0, 9.0, 6.5254)",,92.03,4606,493OL944AB04CB,0,1,0.01031,0.02368,,,RTK,450.5,2026-03-03T12:19:49.897832,F:\TTG\FEV_2026\Faz Santa Rita\INPUT\03_03_2026\Drones\Drone N\DJI_202603030909_001_SR02\DJI_202603030909_001_SR02_Timestamp.MRK,"2.97",,"72.0",-54.1518137,,,2026:03:03 09:19:01,,,,,,0,-6.7,-18.85575719,RtkAlt,180,,,,"(18.0, 51.0, 20.7258)",-1.7,,WGS-84,"72.0",,"0.000625","2.8",-7.8,,"12.29",DJI_202603030909_001_SR02,7.8918,171.1,,,,,-10.3
50,551.404,"20260303","001",SR02,DJI_202603030909_001_SR02,Drone N,F:\TTG\FEV_2026\Faz Santa Rita\INPUT\03_03_2026\Drones\Drone N\DJI_202603030909_001_SR02,,,551.404,,1.2,,,10.00.11.52,2,.JPG,"1.0",-18.8560318,"10.64386",,,DJI_202603030909_001_SR02_Timestamp.MRK,,,1,5280,,"(24.0, 24.0, 2.8, 11.0)",Matrice 350 RTK,101.005,,40,100,F:\TTG\FEV_2026\Faz Santa Rita\INPUT\03_03_2026\Drones\Drone N\DJI_202603030909_001_SR02,,,3956,,L2,50,Normal,"2.97",5994/100,1.8,,1581F6GKB243900400B2,,,58321,,-90,,-54.15176545,,,0,0.00975,,,-8.645,"(54.0, 9.0, 6.3556)",,92.321,4499,493OL944AB04CB,0,1,0.0102,0.0236,,,RTK,450.7,2026-03-03T12:19:53.894107,F:\TTG\FEV_2026\Faz Santa Rita\INPUT\03_03_2026\Drones\Drone N\DJI_202603030909_001_SR02\DJI_202603030909_001_SR02_Timestamp.MRK,"2.97",,"72.0",-54.1517663,,,2026:03:03 09:19:05,,,,,,0,-6.9,-18.85604019,RtkAlt,180,,,,"(18.0, 51.0, 21.7446)",-2.4,,WGS-84,"72.0",,"0.000625","2.8",-7.8,,"12.29",DJI_202603030909_001_SR02,7.8918,171.5,,,,,-10.3
51,551.744,"20260303","001",SR02,DJI_202603030909_001_SR02,Drone N,F:\TTG\FEV_2026\Faz Santa Rita\INPUT\03_03_2026\Drones\Drone N\DJI_202603030909_001_SR02,,,551.744,,1.2,,,10.00.11.52,2,.JPG,"1.0",-18.8563161,"10.55075",,,DJI_202603030909_001_SR02_Timestamp.MRK,,,1,5280,,"(24.0, 24.0, 2.8, 11.0)",Matrice 350 RTK,100.95,,40,100,F:\TTG\FEV_2026\Faz Santa Rita\INPUT\03_03_2026\Drones\Drone N\DJI_202603030909_001_SR02,,,3956,,L2,50,Normal,"2.97",5994/100,1.5,,1581F6GKB243900400B2,,,58322,,-90,,-54.15171684,,,0,0.00985,,,-8.345,"(54.0, 9.0, 6.1806)",,92.648,4457,493OL944AB04CB,0,1,0.01029,0.02357,,,RTK,451,2026-03-03T12:19:57.922169,F:\TTG\FEV_2026\Faz Santa Rita\INPUT\03_03_2026\Drones\Drone N\DJI_202603030909_001_SR02\DJI_202603030909_001_SR02_Timestamp.MRK,"2.97",,"72.0",-54.1517182,,,2026:03:03 09:19:09,,,,,,0,-7.1,-18.85632633,RtkAlt,180,,,,"(18.0, 51.0, 22.7747)",-1,,WGS-84,"72.0",,"0.0006666666666666666","2.8",-7.8,,"12.29",DJI_202603030909_001_SR02,7.8918,171.2,,,,,-10.3
52,552.053,"20260303","001",SR02,DJI_202603030909_001_SR02,Drone N,F:\TTG\FEV_2026\Faz Santa Rita\INPUT\03_03_2026\Drones\Drone N\DJI_202603030909_001_SR02,,,552.053,,1.2,,,10.00.11.52,2,.JPG,"1.0",-18.8565872,"10.55075",,,DJI_202603030909_001_SR02_Timestamp.MRK,,,1,5280,,"(24.0, 24.0, 2.8, 11.0)",Matrice 350 RTK,100.643,,40,100,F:\TTG\FEV_2026\Faz Santa Rita\INPUT\03_03_2026\Drones\Drone N\DJI_202603030909_001_SR02,,,3956,,L2,50,Normal,"2.97",5994/100,1.4,,1581F6GKB243900400B2,,,58323,,-90,,-54.15167139,,,0,0.00975,,,-7.645,"(54.0, 9.0, 6.0169)",,92.975,4604,493OL944AB04CB,0,1,0.01024,0.02348,,,RTK,451.7,2026-03-03T12:20:01.827939,F:\TTG\FEV_2026\Faz Santa Rita\INPUT\03_03_2026\Drones\Drone N\DJI_202603030909_001_SR02\DJI_202603030909_001_SR02_Timestamp.MRK,"2.97",,"72.0",-54.1516739,,,2026:03:03 09:19:13,,,,,,0,-5.7,-18.85660482,RtkAlt,180,,,,"(18.0, 51.0, 23.7773)",-2.3,,WGS-84,"72.0",,"0.0006666666666666666","2.8",-7.9,,"12.29",DJI_202603030909_001_SR02,7.9906,171.1,,,,,-10.3
53,552.379,"20260303","001",SR02,DJI_202603030909_001_SR02,Drone N,F:\TTG\FEV_2026\Faz Santa Rita\INPUT\03_03_2026\Drones\Drone N\DJI_202603030909_001_SR02,,,552.379,,1.2,,,10.00.11.52,2,.JPG,"1.0",-18.8568841,"10.55075",,,DJI_202603030909_001_SR02_Timestamp.MRK,,,1,5280,,"(24.0, 24.0, 2.8, 11.0)",Matrice 350 RTK,100.037,,40,100,F:\TTG\FEV_2026\Faz Santa Rita\INPUT\03_03_2026\Drones\Drone N\DJI_202603030909_001_SR02,,,3956,,L2,50,Normal,"2.97",5994/100,1.6,,1581F6GKB243900400B2,,,58324,,-90,,-54.15162345,,,0,0.0097,,,-6.745,"(54.0, 9.0, 5.8444)",,93.298,4582,493OL944AB04CB,0,1,0.01016,0.02353,,,RTK,452.6,2026-03-03T12:20:05.936959,F:\TTG\FEV_2026\Faz Santa Rita\INPUT\03_03_2026\Drones\Drone N\DJI_202603030909_001_SR02\DJI_202603030909_001_SR02_Timestamp.MRK,"2.97",,"72.0",-54.151625,,,2026:03:03 09:19:17,,,,,,0,-5.8,-18.85689653,RtkAlt,180,,,,"(18.0, 51.0, 24.8274)",-4,,WGS-84,"72.0",,"0.0006666666666666666","2.8",-7.9,,"12.29",DJI_202603030909_001_SR02,7.9906,171.4,,,,,-10.2
54,552.668,"20260303","001",SR02,DJI_202603030909_001_SR02,Drone N,F:\TTG\FEV_2026\Faz Santa Rita\INPUT\03_03_2026\Drones\Drone N\DJI_202603030909_001_SR02,,,552.668,,1.2,,,10.00.11.52,2,.JPG,"1.0",-18.8571535,"10.55075",,,DJI_202603030909_001_SR02_Timestamp.MRK,,,1,5280,,"(24.0, 24.0, 2.8, 11.0)",Matrice 350 RTK,98.887,,40,100,F:\TTG\FEV_2026\Faz Santa Rita\INPUT\03_03_2026\Drones\Drone N\DJI_202603030909_001_SR02,,,3956,,L2,50,Normal,"2.97",5994/100,1.6,,1581F6GKB243900400B2,,,58325,,-90,,-54.15157624,,,0,0.00973,,,-5.345,"(54.0, 9.0, 5.6744)",,93.584,4650,493OL944AB04CB,0,1,0.01024,0.02354,,,RTK,454,2026-03-03T12:20:09.887513,F:\TTG\FEV_2026\Faz Santa Rita\INPUT\03_03_2026\Drones\Drone N\DJI_202603030909_001_SR02\DJI_202603030909_001_SR02_Timestamp.MRK,"2.97",,"72.0",-54.1515795,,,2026:03:03 09:19:21,,,,,,0,-7.3,-18.85717538,RtkAlt,180,,,,"(18.0, 51.0, 25.8313)",-3.5,,WGS-84,"72.0",,"0.0006666666666666666","2.8",-7.7,,"12.29",DJI_202603030909_001_SR02,7.7929,171.3,,,,,-10.3
55,553.017,"20260303","001",SR02,DJI_202603030909_001_SR02,Drone N,F:\TTG\FEV_2026\Faz Santa Rita\INPUT\03_03_2026\Drones\Drone N\DJI_202603030909_001_SR02,,,553.017,,1.2,,,10.00.11.52,2,.JPG,"1.0",-18.8574456,"10.55075",,,DJI_202603030909_001_SR02_Timestamp.MRK,,,1,5280,,"(24.0, 24.0, 2.8, 11.0)",Matrice 350 RTK,98.115,,40,100,F:\TTG\FEV_2026\Faz Santa Rita\INPUT\03_03_2026\Drones\Drone N\DJI_202603030909_001_SR02,,,3956,,L2,50,Normal,"2.97",5994/100,1.5,,1581F6GKB243900400B2,,,58326,,-90,,-54.15152842,,,0,0.00976,,,-4.245,"(54.0, 9.0, 5.5023)",,93.923,4496,493OL944AB04CB,0,1,0.01024,0.0239,,,RTK,455.1,2026-03-03T12:20:13.906161,F:\TTG\FEV_2026\Faz Santa Rita\INPUT\03_03_2026\Drones\Drone N\DJI_202603030909_001_SR02\DJI_202603030909_001_SR02_Timestamp.MRK,"2.97",,"72.0",-54.1515307,,,2026:03:03 09:19:25,,,,,,0,-5.5,-18.85746169,RtkAlt,180,,,,"(18.0, 51.0, 26.862)",-4,,WGS-84,"72.0",,"0.0006666666666666666","2.8",-7.9,,"12.29",DJI_202603030909_001_SR02,7.9906,171.2,,,,,-10.3
56,553.296,"20260303","001",SR02,DJI_202603030909_001_SR02,Drone N,F:\TTG\FEV_2026\Faz Santa Rita\INPUT\03_03_2026\Drones\Drone N\DJI_202603030909_001_SR02,,,553.296,,1.2,,,10.00.11.52,2,.JPG,"1.0",-18.8577291,"10.64386",,,DJI_202603030909_001_SR02_Timestamp.MRK,,,1,5280,,"(24.0, 24.0, 2.8, 11.0)",Matrice 350 RTK,96.931,,40,110,F:\TTG\FEV_2026\Faz Santa Rita\INPUT\03_03_2026\Drones\Drone N\DJI_202603030909_001_SR02,,,3956,,L2,50,Normal,"2.97",5994/100,1.3,,1581F6GKB243900400B2,,,58327,,-90,,-54.15148151,,,0,0.00971,,,-2.745,"(54.0, 9.0, 5.3334)",,94.203,4353,493OL944AB04CB,0,1,0.01022,0.02373,,,RTK,456.6,2026-03-03T12:20:17.819566,F:\TTG\FEV_2026\Faz Santa Rita\INPUT\03_03_2026\Drones\Drone N\DJI_202603030909_001_SR02\DJI_202603030909_001_SR02_Timestamp.MRK,"2.97",,"72.0",-54.1514827,,,2026:03:03 09:19:29,,,,,,0,-7.3,-18.85773876,RtkAlt,180,,,,"(18.0, 51.0, 27.8595)",-2.9,,WGS-84,"72.0",,"0.000625","2.8",-7.8,,"12.29",DJI_202603030909_001_SR02,7.8918,171,,,,,-10.3
57,553.606,"20260303","001",SR02,DJI_202603030909_001_SR02,Drone N,F:\TTG\FEV_2026\Faz Santa Rita\INPUT\03_03_2026\Drones\Drone N\DJI_202603030909_001_SR02,,,553.606,,1.2,,,10.00.11.52,2,.JPG,"1.0",-18.8580127,"10.64386",,,DJI_202603030909_001_SR02_Timestamp.MRK,,,1,5280,,"(24.0, 24.0, 2.8, 11.0)",Matrice 350 RTK,95.729,,40,120,F:\TTG\FEV_2026\Faz Santa Rita\INPUT\03_03_2026\Drones\Drone N\DJI_202603030909_001_SR02,,,3956,,L2,50,Normal,"2.97",5994/100,1.4,,1581F6GKB243900400B2,,,58328,,-90,,-54.15143322,,,0,0.00968,,,-1.245,"(54.0, 9.0, 5.1596)",,94.52,4301,493OL944AB04CB,0,1,0.01017,0.02338,,,RTK,458.1,2026-03-03T12:20:21.877754,F:\TTG\FEV_2026\Faz Santa Rita\INPUT\03_03_2026\Drones\Drone N\DJI_202603030909_001_SR02\DJI_202603030909_001_SR02_Timestamp.MRK,"2.97",,"72.0",-54.1514351,,,2026:03:03 09:19:33,,,,,,0,-6.9,-18.85802666,RtkAlt,180,,,,"(18.0, 51.0, 28.8959)",-2.8,,WGS-84,"72.0",,"0.000625","2.8",-7.8,,"12.29",DJI_202603030909_001_SR02,7.8918,171.1,,,,,-10.3
58,553.92,"20260303","001",SR02,DJI_202603030909_001_SR02,Drone N,F:\TTG\FEV_2026\Faz Santa Rita\INPUT\03_03_2026\Drones\Drone N\DJI_202603030909_001_SR02,,,553.92,,1.2,,,10.00.11.52,2,.JPG,"1.0",-18.8582956,"10.96578",,,DJI_202603030909_001_SR02_Timestamp.MRK,,,1,5280,,"(24.0, 24.0, 2.8, 11.0)",Matrice 350 RTK,94.478,,40,120,F:\TTG\FEV_2026\Faz Santa Rita\INPUT\03_03_2026\Drones\Drone N\DJI_202603030909_001_SR02,,,3956,,L2,50,Normal,"2.97",5994/100,1.3,,1581F6GKB243900400B2,,,58329,,-90,,-54.15138432,,,0,0.00969,,,0.355,"(54.0, 9.0, 4.9835)",,94.833,4275,493OL944AB04CB,0,1,0.01017,0.02338,,,RTK,459.7,2026-03-03T12:20:25.873537,F:\TTG\FEV_2026\Faz Santa Rita\INPUT\03_03_2026\Drones\Drone N\DJI_202603030909_001_SR02\DJI_202603030909_001_SR02_Timestamp.MRK,"2.97",,"72.0",-54.1513863,,,2026:03:03 09:19:37,,,,,,0,-7.7,-18.8583104,RtkAlt,180,,,,"(18.0, 51.0, 29.9174)",-1.2,,WGS-84,"72.0",,"0.0005","2.8",-7.8,,"12.29",DJI_202603030909_001_SR02,7.8918,171,,,,,-10.3
59,554.18,"20260303","001",SR02,DJI_202603030909_001_SR02,Drone N,F:\TTG\FEV_2026\Faz Santa Rita\INPUT\03_03_2026\Drones\Drone N\DJI_202603030909_001_SR02,,,554.18,,4.2,,,10.00.11.52,2,.JPG,"1.0",-18.8584899,"10.64386",,,DJI_202603030909_001_SR02_Timestamp.MRK,,,1,5280,,"(24.0, 24.0, 2.8, 11.0)",Matrice 350 RTK,93.469,,40,120,F:\TTG\FEV_2026\Faz Santa Rita\INPUT\03_03_2026\Drones\Drone N\DJI_202603030909_001_SR02,,,3956,,L2,50,Normal,"2.97",5994/100,10,,1581F6GKB243900400B2,,,58330,,-90,,-54.15132665,,,0,0.00966,,,1.555,"(54.0, 9.0, 4.7759)",,95.07,4317,493OL944AB04CB,0,1,0.01009,0.02369,,,RTK,460.9,2026-03-03T12:20:29.818552,F:\TTG\FEV_2026\Faz Santa Rita\INPUT\03_03_2026\Drones\Drone N\DJI_202603030909_001_SR02\DJI_202603030909_001_SR02_Timestamp.MRK,"2.97",,"72.0",-54.1513309,,,2026:03:03 09:19:41,,,,,,0,-7.9,-18.85849396,RtkAlt,180,,,,"(18.0, 51.0, 30.5782)",-18.3,,WGS-84,"72.0",,"0.000625","2.8",-3.2,,"12.29",DJI_202603030909_001_SR02,5.2802,133,,,,,-37
60,554.485,"20260303","001",SR02,DJI_202603030909_001_SR02,Drone N,F:\TTG\FEV_2026\Faz Santa Rita\INPUT\03_03_2026\Drones\Drone N\DJI_202603030909_001_SR02,,,554.485,,7.8,,,10.00.11.52,2,.JPG,"1.0",-18.8585091,"10.55075",,,DJI_202603030909_001_SR02_Timestamp.MRK,,,1.4,5280,,"(24.0, 24.0, 2.8, 11.0)",Matrice 350 RTK,92.011,,40,100,F:\TTG\FEV_2026\Faz Santa Rita\INPUT\03_03_2026\Drones\Drone N\DJI_202603030909_001_SR02,,,3956,,L2,50,Normal,"2.97",5994/100,0.6,,1581F6GKB243900400B2,,,58331,,-90,,-54.15100862,,,0,0.00982,,,3.355,"(54.0, 9.0, 3.631)",,95.408,4299,493OL944AB04CB,0,1,0.01021,0.02352,,,RTK,462.7,2026-03-03T12:20:35.335513,F:\TTG\FEV_2026\Faz Santa Rita\INPUT\03_03_2026\Drones\Drone N\DJI_202603030909_001_SR02\DJI_202603030909_001_SR02_Timestamp.MRK,"2.97",,"72.0",-54.151012,,,2026:03:03 09:19:46,,,,,,0,-11.5,-18.85850911,RtkAlt,180,,,,"(18.0, 51.0, 30.6327)",0.5,,WGS-84,"72.0",,"0.0006666666666666666","2.8",-0.2,,"12.29",DJI_202603030909_001_SR02,7.8026,91.8,,,,,-87.6
61,554.676,"20260303","001",SR02,DJI_202603030909_001_SR02,Drone N,F:\TTG\FEV_2026\Faz Santa Rita\INPUT\03_03_2026\Drones\Drone N\DJI_202603030909_001_SR02,,,554.676,,2.3,,,10.00.11.52,2,.JPG,"1.0",-18.8584969,"10.64386",,,DJI_202603030909_001_SR02_Timestamp.MRK,,,0.8,5280,,"(24.0, 24.0, 2.8, 11.0)",Matrice 350 RTK,91.126,,40,120,F:\TTG\FEV_2026\Faz Santa Rita\INPUT\03_03_2026\Drones\Drone N\DJI_202603030909_001_SR02,,,3956,,L2,50,Normal,"2.97",5994/100,12.2,,1581F6GKB243900400B2,,,58332,,-90,,-54.15077418,,,0,0.00972,,,4.455,"(54.0, 9.0, 2.787)",,95.577,4324,493OL944AB04CB,0,1,0.01012,0.02348,,,RTK,463.8,2026-03-03T12:20:39.663855,F:\TTG\FEV_2026\Faz Santa Rita\INPUT\03_03_2026\Drones\Drone N\DJI_202603030909_001_SR02\DJI_202603030909_001_SR02_Timestamp.MRK,"2.97",,"72.0",-54.1507785,,,2026:03:03 09:19:51,,,,,,0,-3.8,-18.85849197,RtkAlt,180,,,,"(18.0, 51.0, 30.571)",-15.8,,WGS-84,"72.0",,"0.000625","2.8",3.3,,"12.29",DJI_202603030909_001_SR02,4.0224,44.8,,,,,-123
